{
"type": "FeatureCollection",
"crs": { "type": "name", "properties": { "name": "urn:ogc:def:crs:OGC:1.3:CRS84" } },
                                                                                
"features": [
{ "type": "Feature", "properties": { "OBJECTID": 1, "pkAutoServ": "23236000001", "fkAddressI": "2323676374343", "ArabicName": "ايلاف للسيارات", "EnglishNam": "elaf for automobiles", "Subtype": 10103 }, "geometry": { "type": "Point", "coordinates": [ 39.240344219000065, 21.524358232000168 ] } },
{ "type": "Feature", "properties": { "OBJECTID": 2, "pkAutoServ": "22413000002", "fkAddressI": "2241348237710", "ArabicName": "معرض وصيانة سيارات سوزوكي", "EnglishNam": "suzuki car maintenance and showroom", "Subtype": 10103 }, "geometry": { "type": "Point", "coordinates": [ 39.206197346000124, 21.44731204600015 ] } },
{ "type": "Feature", "properties": { "OBJECTID": 3, "pkAutoServ": "23232000003", "fkAddressI": "2323221728077", "ArabicName": "محطة التسهيلات للمحروقات", "EnglishNam": "al tashilat gas station", "Subtype": 10108 }, "geometry": { "type": "Point", "coordinates": [ 39.209496434000073, 21.528912644000059 ] } },
{ "type": "Feature", "properties": { "OBJECTID": 4, "pkAutoServ": "23345000004", "fkAddressI": "2334591313090", "ArabicName": "محطة كيوبركس للمحروقات", "EnglishNam": "qubrex gas station", "Subtype": 10108 }, "geometry": { "type": "Point", "coordinates": [ 39.212520115000075, 21.563165306000144 ] } },
{ "type": "Feature", "properties": { "OBJECTID": 5, "pkAutoServ": "23447000005", "fkAddressI": "2344792914360", "ArabicName": "عاشور للسيارات", "EnglishNam": "ashur cars", "Subtype": 10103 }, "geometry": { "type": "Point", "coordinates": [ 39.188141368000061, 21.585557586000164 ] } },
{ "type": "Feature", "properties": { "OBJECTID": 6, "pkAutoServ": "23441000006", "fkAddressI": "2344137846325", "ArabicName": "ابو ذياب لتاجير السيارات", "EnglishNam": "abu diyab rent a car", "Subtype": 10106 }, "geometry": { "type": "Point", "coordinates": [ 39.182686214000114, 21.558653754999966 ] } },
{ "type": "Feature", "properties": { "OBJECTID": 7, "pkAutoServ": "23444000007", "fkAddressI": "2344440357380", "ArabicName": "محطة الفيصلية للمحروقات", "EnglishNam": "al faisaliyyah gas station", "Subtype": 10108 }, "geometry": { "type": "Point", "coordinates": [ 39.18498954800009, 21.568298546000165 ] } },
{ "type": "Feature", "properties": { "OBJECTID": 8, "pkAutoServ": "22272000008", "fkAddressI": "2227269533401", "ArabicName": "محطة الرشيد للمحروقات", "EnglishNam": "al rashid gas station", "Subtype": 10108 }, "geometry": { "type": "Point", "coordinates": [ 39.298097264000091, 21.497670981000169 ] } },
{ "type": "Feature", "properties": { "OBJECTID": 9, "pkAutoServ": "23342000009", "fkAddressI": "2334228739169", "ArabicName": "البرق لتاجير السيارات", "EnglishNam": "al barq rent a car", "Subtype": 10106 }, "geometry": { "type": "Point", "coordinates": [ 39.210431905000121, 21.56360074700001 ] } },
{ "type": "Feature", "properties": { "OBJECTID": 10, "pkAutoServ": "23333000010", "fkAddressI": "2333378912316", "ArabicName": "شركة الجميح للسيارات", "EnglishNam": "al jomaih automobiles co.", "Subtype": 10101 }, "geometry": { "type": "Point", "coordinates": [ 39.176698108000039, 21.546515658000146 ] } },
{ "type": "Feature", "properties": { "OBJECTID": 11, "pkAutoServ": "22413000011", "fkAddressI": null, "ArabicName": "اشرف للمحروقات البترولية", "EnglishNam": "ashraf gas station", "Subtype": 10108 }, "geometry": { "type": "Point", "coordinates": [ 39.206881760999977, 21.447375368000053 ] } },
{ "type": "Feature", "properties": { "OBJECTID": 12, "pkAutoServ": "23336000012", "fkAddressI": "2333672704336", "ArabicName": "الوجيه للسيارات", "EnglishNam": "alwaljeeh for automobiles", "Subtype": 10103 }, "geometry": { "type": "Point", "coordinates": [ 39.196199820000174, 21.540897036000104 ] } },
{ "type": "Feature", "properties": { "OBJECTID": 13, "pkAutoServ": "22262000013", "fkAddressI": "2226233357001", "ArabicName": "محطة المساعد 3", "EnglishNam": "al musaid 3 gas station", "Subtype": 10108 }, "geometry": { "type": "Point", "coordinates": [ 39.265135950000115, 21.497436589000131 ] } },
{ "type": "Feature", "properties": { "OBJECTID": 14, "pkAutoServ": "23434000014", "fkAddressI": "2343434539298", "ArabicName": "الفا لتاجير السيارات", "EnglishNam": "alpha rent a car", "Subtype": 10106 }, "geometry": { "type": "Point", "coordinates": [ 39.156686951000154, 21.578309176000118 ] } },
{ "type": "Feature", "properties": { "OBJECTID": 15, "pkAutoServ": "23455000015", "fkAddressI": null, "ArabicName": "الجويد لخدمة السيارات", "EnglishNam": "al - joayed car service", "Subtype": 10102 }, "geometry": { "type": "Point", "coordinates": [ 39.217664164000155, 21.586270531000082 ] } },
{ "type": "Feature", "properties": { "OBJECTID": 16, "pkAutoServ": "23451000016", "fkAddressI": "2345166623274", "ArabicName": "الرحيلي لتاجير السيارات", "EnglishNam": "al rehaili rent a car", "Subtype": 10106 }, "geometry": { "type": "Point", "coordinates": [ 39.210625525000125, 21.568019505000052 ] } },
{ "type": "Feature", "properties": { "OBJECTID": 17, "pkAutoServ": "22413000017", "fkAddressI": "2241348147627", "ArabicName": "معرض وصيانة سيارات سوزوكي", "EnglishNam": "suzuki car maintenance and showroom", "Subtype": 10103 }, "geometry": { "type": "Point", "coordinates": [ 39.206188992000136, 21.44653141200007 ] } },
{ "type": "Feature", "properties": { "OBJECTID": 18, "pkAutoServ": "22237000018", "fkAddressI": "2223772544361", "ArabicName": "اروع لتاجير السيارات", "EnglishNam": "arwa' rent a car", "Subtype": 10106 }, "geometry": { "type": "Point", "coordinates": [ 39.198532890000138, 21.487963107000041 ] } },
{ "type": "Feature", "properties": { "OBJECTID": 19, "pkAutoServ": "23441000019", "fkAddressI": "2344138606350", "ArabicName": "التاج لتاجير السيارات", "EnglishNam": "al - taj  rent a car", "Subtype": 10106 }, "geometry": { "type": "Point", "coordinates": [ 39.183425395000086, 21.558887821000155 ] } },
{ "type": "Feature", "properties": { "OBJECTID": 20, "pkAutoServ": "23447000020", "fkAddressI": "2344744878151", "ArabicName": "محطة الطيارين للمحروقات", "EnglishNam": "al tayyarin gas station", "Subtype": 10108 }, "geometry": { "type": "Point", "coordinates": [ 39.189343508000093, 21.575259670000037 ] } },
{ "type": "Feature", "properties": { "OBJECTID": 21, "pkAutoServ": "22261000021", "fkAddressI": "2226125738020", "ArabicName": "محطة السليمانية الشرقية", "EnglishNam": "al sulaimaniyyah al sharqiyyah gas station", "Subtype": 10108 }, "geometry": { "type": "Point", "coordinates": [ 39.257802268000091, 21.506655665000153 ] } },
{ "type": "Feature", "properties": { "OBJECTID": 22, "pkAutoServ": "23334000022", "fkAddressI": "2333431448552", "ArabicName": "سعودي لتاجير السيارات", "EnglishNam": "saudi rent a car", "Subtype": 10106 }, "geometry": { "type": "Point", "coordinates": [ 39.184511234000126, 21.552456433000032 ] } },
{ "type": "Feature", "properties": { "OBJECTID": 23, "pkAutoServ": "23334000023", "fkAddressI": null, "ArabicName": "محطة المدينة", "EnglishNam": "al madinah gas station", "Subtype": 10108 }, "geometry": { "type": "Point", "coordinates": [ 39.175452436, 21.549421406000192 ] } },
{ "type": "Feature", "properties": { "OBJECTID": 24, "pkAutoServ": "23341000024", "fkAddressI": "2334129747023", "ArabicName": "محطة نفط 278 للمحروقات", "EnglishNam": "nasr gas station no 278", "Subtype": 10108 }, "geometry": { "type": "Point", "coordinates": [ 39.211190807000037, 21.544072387000028 ] } },
{ "type": "Feature", "properties": { "OBJECTID": 25, "pkAutoServ": "23336000025", "fkAddressI": "2333677274317", "ArabicName": "محطة نفط 139 للمحروقات", "EnglishNam": "naft gas station no 139", "Subtype": 10108 }, "geometry": { "type": "Point", "coordinates": [ 39.196017508000182, 21.545017717000064 ] } },
{ "type": "Feature", "properties": { "OBJECTID": 26, "pkAutoServ": "23232000026", "fkAddressI": "2323223598772", "ArabicName": "السويلم لتاجير السيارات", "EnglishNam": "suwailim rent a car", "Subtype": 10106 }, "geometry": { "type": "Point", "coordinates": [ 39.211595475000081, 21.535298967000131 ] } },
{ "type": "Feature", "properties": { "OBJECTID": 27, "pkAutoServ": "23455000027", "fkAddressI": "2345575724488", "ArabicName": "محطة القناعة للمواد البترولية", "EnglishNam": "al qana'ah gas station", "Subtype": 10108 }, "geometry": { "type": "Point", "coordinates": [ 39.216097403000106, 21.593974140000057 ] } },
{ "type": "Feature", "properties": { "OBJECTID": 28, "pkAutoServ": "23451000028", "fkAddressI": "2345168492259", "ArabicName": "محطة السلام للمحروقات", "EnglishNam": "al salam gas station", "Subtype": 10108 }, "geometry": { "type": "Point", "coordinates": [ 39.200709484000072, 21.569891782000184 ] } },
{ "type": "Feature", "properties": { "OBJECTID": 29, "pkAutoServ": "22535000029", "fkAddressI": "2253528846082", "ArabicName": "محطة ابو الزوايد للمحروقات", "EnglishNam": "abu al zawayid gas station", "Subtype": 10108 }, "geometry": { "type": "Point", "coordinates": [ 39.236009804000162, 21.305399605000105 ] } },
{ "type": "Feature", "properties": { "OBJECTID": 30, "pkAutoServ": "22333000030", "fkAddressI": "2233369852123", "ArabicName": "محطة الهلال للمحروقات", "EnglishNam": "al hilal gas station", "Subtype": 10108 }, "geometry": { "type": "Point", "coordinates": [ 39.199311523000176, 21.465129765000142 ] } },
{ "type": "Feature", "properties": { "OBJECTID": 31, "pkAutoServ": "23236000031", "fkAddressI": "2323677354343", "ArabicName": "ساماكو للسيارات", "EnglishNam": "samaco", "Subtype": 10103 }, "geometry": { "type": "Point", "coordinates": [ 39.240347945, 21.524778378000121 ] } },
{ "type": "Feature", "properties": { "OBJECTID": 32, "pkAutoServ": "23236000032", "fkAddressI": "2323677354343", "ArabicName": "سفاري للسيارات", "EnglishNam": "safari cars", "Subtype": 10103 }, "geometry": { "type": "Point", "coordinates": [ 39.240351546000056, 21.525114626000061 ] } },
{ "type": "Feature", "properties": { "OBJECTID": 33, "pkAutoServ": "22413000033", "fkAddressI": "2241351098909", "ArabicName": "محطة الاتحاد للخدمات البترولية", "EnglishNam": "al ittihad gas station", "Subtype": 10108 }, "geometry": { "type": "Point", "coordinates": [ 39.209025571000097, 21.458158083000058 ] } },
{ "type": "Feature", "properties": { "OBJECTID": 34, "pkAutoServ": "23343000034", "fkAddressI": "2334342526392", "ArabicName": "مركز صيانة السيارات", "EnglishNam": "car maintainance center", "Subtype": 10102 }, "geometry": { "type": "Point", "coordinates": [ 39.223670907000042, 21.538504057000068 ] } },
{ "type": "Feature", "properties": { "OBJECTID": 35, "pkAutoServ": "23453000035", "fkAddressI": "2345341266422", "ArabicName": "البدرة لتاجير السيارات", "EnglishNam": "al badrah rent a car", "Subtype": 10106 }, "geometry": { "type": "Point", "coordinates": [ 39.219015108000178, 21.565921269000171 ] } },
{ "type": "Feature", "properties": { "OBJECTID": 36, "pkAutoServ": "23236000036", "fkAddressI": "2323669114354", "ArabicName": "الاجدى للسيارات", "EnglishNam": "al ajdi automobiles", "Subtype": 10103 }, "geometry": { "type": "Point", "coordinates": [ 39.240430106000133, 21.517834157000152 ] } },
{ "type": "Feature", "properties": { "OBJECTID": 37, "pkAutoServ": "22413000037", "fkAddressI": "2241348317673", "ArabicName": "معرض وصيانة سيارات سوزوكي", "EnglishNam": "suzuki car maintenance and showroom", "Subtype": 10103 }, "geometry": { "type": "Point", "coordinates": [ 39.206336524999983, 21.446934997000142 ] } },
{ "type": "Feature", "properties": { "OBJECTID": 38, "pkAutoServ": "22413000038", "fkAddressI": "2241348497743", "ArabicName": "مغسلة سيارات", "EnglishNam": "vehicles washing center", "Subtype": 10102 }, "geometry": { "type": "Point", "coordinates": [ 39.206551413, 21.447528624000142 ] } },
{ "type": "Feature", "properties": { "OBJECTID": 39, "pkAutoServ": "23232000039", "fkAddressI": "2323225858805", "ArabicName": "محطة البشير للخدمات البترولية", "EnglishNam": "al basheer petrol station", "Subtype": 10108 }, "geometry": { "type": "Point", "coordinates": [ 39.213532237000152, 21.535473098000011 ] } },
{ "type": "Feature", "properties": { "OBJECTID": 40, "pkAutoServ": "22325000040", "fkAddressI": "2232544638942", "ArabicName": "محطة بن يمين للمحوقات", "EnglishNam": "bin yamin gas station", "Subtype": 10108 }, "geometry": { "type": "Point", "coordinates": [ 39.200443657000051, 21.485596900000075 ] } },
{ "type": "Feature", "properties": { "OBJECTID": 201, "pkAutoServ": "23443000201", "fkAddressI": "2344367852416", "ArabicName": "محطة نفط للمحروقات", "EnglishNam": "naft gas station", "Subtype": 10108 }, "geometry": { "type": "Point", "coordinates": [ 39.163835476000031, 21.586765725000191 ] } },
{ "type": "Feature", "properties": { "OBJECTID": 202, "pkAutoServ": "23232000202", "fkAddressI": "2323288682997", "ArabicName": "المفتاح لتاجير السيارات", "EnglishNam": "key rent a car", "Subtype": 10106 }, "geometry": { "type": "Point", "coordinates": [ 39.217560518000084, 21.536378597000066 ] } },
{ "type": "Feature", "properties": { "OBJECTID": 203, "pkAutoServ": "23223000203", "fkAddressI": "2322379202510", "ArabicName": "محطة التعاون للخدمات البترولية", "EnglishNam": "taawun gas station", "Subtype": 10108 }, "geometry": { "type": "Point", "coordinates": [ 39.197171747000027, 21.526443520000043 ] } },
{ "type": "Feature", "properties": { "OBJECTID": 204, "pkAutoServ": "23442000204", "fkAddressI": "2344288723231", "ArabicName": "مركز الحازمية للمحروقات وخدمة السيارات", "EnglishNam": "al hazimiyyah gas station and car services", "Subtype": 10108 }, "geometry": { "type": "Point", "coordinates": [ 39.177234583000143, 21.581785704000026 ] } },
{ "type": "Feature", "properties": { "OBJECTID": 205, "pkAutoServ": "23441000205", "fkAddressI": "2344130197058", "ArabicName": "محطة القافله للمحروقات وخدمة السيارات", "EnglishNam": "al qafilah gas station and car services", "Subtype": 10108 }, "geometry": { "type": "Point", "coordinates": [ 39.175354631000175, 21.565455738000139 ] } },
{ "type": "Feature", "properties": { "OBJECTID": 206, "pkAutoServ": "23335000206", "fkAddressI": "2333549586532", "ArabicName": "معرض سيارات خليل عبد الرحمن السليماني", "EnglishNam": "alsulaimani car showroom", "Subtype": 10103 }, "geometry": { "type": "Point", "coordinates": [ 39.202298296000095, 21.534254740000108 ] } },
{ "type": "Feature", "properties": { "OBJECTID": 207, "pkAutoServ": "23449000207", "fkAddressI": "2344984574390", "ArabicName": "العبيدي لتاجير السيارات", "EnglishNam": "al ubaidi rent a car", "Subtype": 10106 }, "geometry": { "type": "Point", "coordinates": [ 39.182783596000149, 21.601948791000041 ] } },
{ "type": "Feature", "properties": { "OBJECTID": 208, "pkAutoServ": "23449000208", "fkAddressI": "2344948947624", "ArabicName": "محطة المرزاب للمحروقات", "EnglishNam": "al marzab gas station", "Subtype": 10108 }, "geometry": { "type": "Point", "coordinates": [ 39.187779251000052, 21.594334709000123 ] } },
{ "type": "Feature", "properties": { "OBJECTID": 209, "pkAutoServ": "23236000209", "fkAddressI": "2323679594336", "ArabicName": "محمد يوسف ناغي - هيونداي", "EnglishNam": "muhammad yusuf naghi hyundai", "Subtype": 10101 }, "geometry": { "type": "Point", "coordinates": [ 39.240284532000032, 21.527504538000073 ] } },
{ "type": "Feature", "properties": { "OBJECTID": 210, "pkAutoServ": "22324000210", "fkAddressI": "2232464413664", "ArabicName": "محطة القريات للمحروقات", "EnglishNam": "al qureyyat gas station", "Subtype": 10108 }, "geometry": { "type": "Point", "coordinates": [ 39.192580239999984, 21.462944743000151 ] } },
{ "type": "Feature", "properties": { "OBJECTID": 211, "pkAutoServ": "23523000211", "fkAddressI": "2352335088085", "ArabicName": "بدجت لتاجير السيارات", "EnglishNam": "budget", "Subtype": 10106 }, "geometry": { "type": "Point", "coordinates": [ 39.13255883100004, 21.609168874000147 ] } },
{ "type": "Feature", "properties": { "OBJECTID": 212, "pkAutoServ": "23436000212", "fkAddressI": "2343670444133", "ArabicName": "الزين - معرض سيارات هيونداي", "EnglishNam": "al - zain", "Subtype": 10103 }, "geometry": { "type": "Point", "coordinates": [ 39.163796100000127, 21.584170808000181 ] } },
{ "type": "Feature", "properties": { "OBJECTID": 213, "pkAutoServ": "23343000213", "fkAddressI": "2334350046533", "ArabicName": "المركز الدولي للسيارات", "EnglishNam": "int'l center for cars", "Subtype": 10103 }, "geometry": { "type": "Point", "coordinates": [ 39.230966825999985, 21.539671463000047 ] } },
{ "type": "Feature", "properties": { "OBJECTID": 214, "pkAutoServ": "23341000214", "fkAddressI": "2334131366152", "ArabicName": "محطة المحبرة للمحروقات", "EnglishNam": "al amhbara gas station", "Subtype": 10108 }, "geometry": { "type": "Point", "coordinates": [ 39.212926977000166, 21.536189837999984 ] } },
{ "type": "Feature", "properties": { "OBJECTID": 215, "pkAutoServ": "22335000215", "fkAddressI": "2233577665052", "ArabicName": "محطة السعادة", "EnglishNam": "al saadah gas station", "Subtype": 10108 }, "geometry": { "type": "Point", "coordinates": [ 39.227763417000062, 21.47237470500005 ] } },
{ "type": "Feature", "properties": { "OBJECTID": 216, "pkAutoServ": "23531000216", "fkAddressI": "2353165072396", "ArabicName": "الشامل لخدمة السيارات", "EnglishNam": "al shamil car service", "Subtype": 10102 }, "geometry": { "type": "Point", "coordinates": [ 39.159243760000038, 21.602210192000086 ] } },
{ "type": "Feature", "properties": { "OBJECTID": 217, "pkAutoServ": "22242000217", "fkAddressI": "2224263783523", "ArabicName": "المحطة الفنية للمحروقات", "EnglishNam": "technical petrol station", "Subtype": 10108 }, "geometry": { "type": "Point", "coordinates": [ 39.207637667000029, 21.487646633000111 ] } },
{ "type": "Feature", "properties": { "OBJECTID": 218, "pkAutoServ": "23533000218", "fkAddressI": "2353337158110", "ArabicName": "محطة القوس للمحروقات", "EnglishNam": "al qows gas station", "Subtype": 10108 }, "geometry": { "type": "Point", "coordinates": [ 39.172008993000134, 21.616701835000185 ] } },
{ "type": "Feature", "properties": { "OBJECTID": 219, "pkAutoServ": "23533000219", "fkAddressI": "2353374984425", "ArabicName": "محطة الريف السعودي للمحروقات", "EnglishNam": "al reef al saudi  gas station", "Subtype": 10108 }, "geometry": { "type": "Point", "coordinates": [ 39.178829618, 21.61106507900007 ] } },
{ "type": "Feature", "properties": { "OBJECTID": 220, "pkAutoServ": "23534000220", "fkAddressI": "2353432318145", "ArabicName": "محطة بن دعجم للمحروقات 1", "EnglishNam": "bin daajam gas station", "Subtype": 10108 }, "geometry": { "type": "Point", "coordinates": [ 39.163647682000089, 21.633293671000047 ] } },
{ "type": "Feature", "properties": { "OBJECTID": 221, "pkAutoServ": "23532000221", "fkAddressI": null, "ArabicName": "محطة السندباد للمحروقات", "EnglishNam": "al sindibad gas station and car wash", "Subtype": 10108 }, "geometry": { "type": "Point", "coordinates": [ 39.165234816000179, 21.618567254000084 ] } },
{ "type": "Feature", "properties": { "OBJECTID": 222, "pkAutoServ": "23831000222", "fkAddressI": "2383122006801", "ArabicName": "محطة مرشود الرحيلي للمحروقات", "EnglishNam": "marshud al rehaili gas station", "Subtype": 10108 }, "geometry": { "type": "Point", "coordinates": [ 39.13031747600013, 21.789740226999982 ] } },
{ "type": "Feature", "properties": { "OBJECTID": 223, "pkAutoServ": "23437000223", "fkAddressI": "2343779403852", "ArabicName": "معرض سيارات ايسوزو", "EnglishNam": "isuzu", "Subtype": 10103 }, "geometry": { "type": "Point", "coordinates": [ 39.161153715000069, 21.592084271999965 ] } },
{ "type": "Feature", "properties": { "OBJECTID": 224, "pkAutoServ": "22331000224", "fkAddressI": "2233132877508", "ArabicName": "محطة النور للمحروقات", "EnglishNam": "al nurgas station", "Subtype": 10108 }, "geometry": { "type": "Point", "coordinates": [ 39.219982646000119, 21.484601677000057 ] } },
{ "type": "Feature", "properties": { "OBJECTID": 225, "pkAutoServ": "23342000225", "fkAddressI": "2334279652775", "ArabicName": "محطة الصحافة", "EnglishNam": "al sahafa gas station", "Subtype": 10108 }, "geometry": { "type": "Point", "coordinates": [ 39.209453180000025, 21.552582896000104 ] } },
{ "type": "Feature", "properties": { "OBJECTID": 226, "pkAutoServ": "23341000226", "fkAddressI": "2334161252636", "ArabicName": "فرناس لتاجير السيارات", "EnglishNam": "firnas rent a car", "Subtype": 10106 }, "geometry": { "type": "Point", "coordinates": [ 39.208006606000083, 21.536066160000075 ] } },
{ "type": "Feature", "properties": { "OBJECTID": 227, "pkAutoServ": "23336000227", "fkAddressI": "2333676405257", "ArabicName": "محطة الراية للمحروقات", "EnglishNam": "al rayah gas station", "Subtype": 10108 }, "geometry": { "type": "Point", "coordinates": [ 39.205084657000157, 21.544236692000027 ] } },
{ "type": "Feature", "properties": { "OBJECTID": 228, "pkAutoServ": "23434000228", "fkAddressI": "2343483404696", "ArabicName": "رواد العالمية لتاجير السيارات", "EnglishNam": "rwad al almyah rent a car", "Subtype": 10106 }, "geometry": { "type": "Point", "coordinates": [ 39.168713530000048, 21.569553596000105 ] } },
{ "type": "Feature", "properties": { "OBJECTID": 229, "pkAutoServ": "23236000229", "fkAddressI": "2323667074330", "ArabicName": "المتميزة لتاجير السيارات", "EnglishNam": "al mutamayyizah rent a car", "Subtype": 10106 }, "geometry": { "type": "Point", "coordinates": [ 39.240193015000159, 21.514913027000034 ] } },
{ "type": "Feature", "properties": { "OBJECTID": 230, "pkAutoServ": "23621000230", "fkAddressI": "2362162333178", "ArabicName": "محطة موبيل للمحروقات", "EnglishNam": "mobil gas station", "Subtype": 10108 }, "geometry": { "type": "Point", "coordinates": [ 39.137022429000069, 21.624598354999989 ] } },
{ "type": "Feature", "properties": { "OBJECTID": 231, "pkAutoServ": "23434000231", "fkAddressI": "2343483944681", "ArabicName": "الثاقب لتاجير السيارات", "EnglishNam": "al - thaqeb rent acar", "Subtype": 10106 }, "geometry": { "type": "Point", "coordinates": [ 39.168566026000121, 21.570082116000094 ] } },
{ "type": "Feature", "properties": { "OBJECTID": 232, "pkAutoServ": "23434000232", "fkAddressI": "2343483404696", "ArabicName": "العبيري لتاجير السيارات", "EnglishNam": "al ubaidi rent a car", "Subtype": 10106 }, "geometry": { "type": "Point", "coordinates": [ 39.16864921500013, 21.56975610000012 ] } },
{ "type": "Feature", "properties": { "OBJECTID": 233, "pkAutoServ": "23434000233", "fkAddressI": "2343443387660", "ArabicName": "محطة بترومين للمحروقات", "EnglishNam": "petromin gas station", "Subtype": 10108 }, "geometry": { "type": "Point", "coordinates": [ 39.165241570000035, 21.56330318 ] } },
{ "type": "Feature", "properties": { "OBJECTID": 234, "pkAutoServ": "23341000234", "fkAddressI": "2334132806198", "ArabicName": "هلا لتاجير السيارات", "EnglishNam": "hala rent a car", "Subtype": 10106 }, "geometry": { "type": "Point", "coordinates": [ 39.214355897000075, 21.536474812000165 ] } },
{ "type": "Feature", "properties": { "OBJECTID": 235, "pkAutoServ": "23236000235", "fkAddressI": "2323665014365", "ArabicName": "السيف للمحركات", "EnglishNam": "assaif motors", "Subtype": 10102 }, "geometry": { "type": "Point", "coordinates": [ 39.240539200000114, 21.513771379000048 ] } },
{ "type": "Feature", "properties": { "OBJECTID": 236, "pkAutoServ": "22413000236", "fkAddressI": "2241389054018", "ArabicName": "محطة الفلاح للمحروقات", "EnglishNam": "al falah gas station", "Subtype": 10108 }, "geometry": { "type": "Point", "coordinates": [ 39.19846297600003, 21.45817925700004 ] } },
{ "type": "Feature", "properties": { "OBJECTID": 237, "pkAutoServ": "23534000237", "fkAddressI": "2353433967980", "ArabicName": "محطة الصبر للمحروقات", "EnglishNam": "al sabr gas station", "Subtype": 10108 }, "geometry": { "type": "Point", "coordinates": [ 39.165201764000074, 21.631808706000186 ] } },
{ "type": "Feature", "properties": { "OBJECTID": 238, "pkAutoServ": "23446000238", "fkAddressI": "2344675313521", "ArabicName": "محطة ومغاسل الزهور", "EnglishNam": "al zuhur gas station and car wash", "Subtype": 10108 }, "geometry": { "type": "Point", "coordinates": [ 39.174396935000175, 21.593560558000092 ] } },
{ "type": "Feature", "properties": { "OBJECTID": 239, "pkAutoServ": "23533000239", "fkAddressI": "2353343217843", "ArabicName": "مركز عبدالهادي للمحروقات وخدمة سيارات", "EnglishNam": "abdullahadi auto motors and gas station", "Subtype": 10108 }, "geometry": { "type": "Point", "coordinates": [ 39.177856781000116, 21.614266292000025 ] } },
{ "type": "Feature", "properties": { "OBJECTID": 240, "pkAutoServ": "23448000240", "fkAddressI": "2344872914729", "ArabicName": "محطة موبيل للمحروقات", "EnglishNam": "mobil gas station", "Subtype": 10108 }, "geometry": { "type": "Point", "coordinates": [ 39.18618037900012, 21.591317412000137 ] } },
{ "type": "Feature", "properties": { "OBJECTID": 2369, "pkAutoServ": "26576002369", "fkAddressI": "2657631466500", "ArabicName": "اتيام لتأجير السيارات", "EnglishNam": "atyam rent a car", "Subtype": 10106 }, "geometry": { "type": "Point", "coordinates": [ 40.476439380000159, 21.438284306000185 ] } },
{ "type": "Feature", "properties": { "OBJECTID": 2370, "pkAutoServ": "26578002370", "fkAddressI": "2657863635293", "ArabicName": "منطقة معارض السيارات", "EnglishNam": "car exhibition area", "Subtype": 10103 }, "geometry": { "type": "Point", "coordinates": [ 40.501737229000128, 21.452804036000032 ] } },
{ "type": "Feature", "properties": { "OBJECTID": 2371, "pkAutoServ": "26411002371", "fkAddressI": "2641176812416", "ArabicName": "محطة", "EnglishNam": "gas station", "Subtype": 10108 }, "geometry": { "type": "Point", "coordinates": [ 40.510959073000038, 21.448874422000131 ] } },
{ "type": "Feature", "properties": { "OBJECTID": 2372, "pkAutoServ": "26561002372", "fkAddressI": "2656176252300", "ArabicName": "محطة الدعجاني البترولية + مسجد صغير", "EnglishNam": "ad dajani gas station and mosque", "Subtype": 10108 }, "geometry": { "type": "Point", "coordinates": [ 40.422502100000088, 21.332928406000121 ] } },
{ "type": "Feature", "properties": { "OBJECTID": 2373, "pkAutoServ": "26578002373", "fkAddressI": "2657862765235", "ArabicName": "منطقة معارض السيارات", "EnglishNam": "car exhibition area", "Subtype": 10103 }, "geometry": { "type": "Point", "coordinates": [ 40.501164385000152, 21.452022137000085 ] } },
{ "type": "Feature", "properties": { "OBJECTID": 2386, "pkAutoServ": "26578002386", "fkAddressI": "2657851786223", "ArabicName": "منطقة معارض السيارات", "EnglishNam": "car exhibition area", "Subtype": 10103 }, "geometry": { "type": "Point", "coordinates": [ 40.500601905000167, 21.451558789000103 ] } },
{ "type": "Feature", "properties": { "OBJECTID": 2387, "pkAutoServ": "26569002387", "fkAddressI": "2656982272117", "ArabicName": "محطة الدوري للمحروقات", "EnglishNam": "ad duri gas station", "Subtype": 10108 }, "geometry": { "type": "Point", "coordinates": [ 40.446915557000068, 21.413072157000158 ] } },
{ "type": "Feature", "properties": { "OBJECTID": 2388, "pkAutoServ": "26522002388", "fkAddressI": "2652229879318", "ArabicName": "محطة المعتاد", "EnglishNam": "al mu'tad gas station", "Subtype": 10108 }, "geometry": { "type": "Point", "coordinates": [ 40.390480603000128, 21.299360215000092 ] } },
{ "type": "Feature", "properties": { "OBJECTID": 2389, "pkAutoServ": "26578002389", "fkAddressI": "2657862415499", "ArabicName": "منطقة معارض سيارات", "EnglishNam": "car's exhibition", "Subtype": 10103 }, "geometry": { "type": "Point", "coordinates": [ 40.503704740000103, 21.451676702000157 ] } },
{ "type": "Feature", "properties": { "OBJECTID": 2390, "pkAutoServ": "26578002390", "fkAddressI": "2657862935541", "ArabicName": "منطقة معارض سيارات", "EnglishNam": "car's exhibition", "Subtype": 10103 }, "geometry": { "type": "Point", "coordinates": [ 40.504115062000153, 21.45215578900013 ] } },
{ "type": "Feature", "properties": { "OBJECTID": 2391, "pkAutoServ": "26578002391", "fkAddressI": "2657852556464", "ArabicName": "منطقة معارض السيارات", "EnglishNam": "car exhibition area", "Subtype": 10103 }, "geometry": { "type": "Point", "coordinates": [ 40.501364293000165, 21.45372577500018 ] } },
{ "type": "Feature", "properties": { "OBJECTID": 2392, "pkAutoServ": "26576002392", "fkAddressI": "2657632166495", "ArabicName": "محطة الاستاد الرياضي", "EnglishNam": "sport stadium station", "Subtype": 10108 }, "geometry": { "type": "Point", "coordinates": [ 40.477117297000177, 21.438240293000149 ] } },
{ "type": "Feature", "properties": { "OBJECTID": 2393, "pkAutoServ": "26578002393", "fkAddressI": "2657861485498", "ArabicName": "منطقة معارض سيارات", "EnglishNam": "car's exhibition", "Subtype": 10103 }, "geometry": { "type": "Point", "coordinates": [ 40.50368985200015, 21.450853312000049 ] } },
{ "type": "Feature", "properties": { "OBJECTID": 2394, "pkAutoServ": "26564002394", "fkAddressI": "2656451787145", "ArabicName": "محطة الشرقية", "EnglishNam": "ash sharqiyyah gas station", "Subtype": 10108 }, "geometry": { "type": "Point", "coordinates": [ 40.42094314600007, 21.35791537 ] } },
{ "type": "Feature", "properties": { "OBJECTID": 241, "pkAutoServ": "22325000241", "fkAddressI": "2232544587861", "ArabicName": "المحطة الجنوبية للمحروقات", "EnglishNam": "southern gas station", "Subtype": 10108 }, "geometry": { "type": "Point", "coordinates": [ 39.200280821000092, 21.475763778000044 ] } },
{ "type": "Feature", "properties": { "OBJECTID": 242, "pkAutoServ": "23344000242", "fkAddressI": "2334479725269", "ArabicName": "محطة موبيل للمحروقات", "EnglishNam": "mobil gas station", "Subtype": 10108 }, "geometry": { "type": "Point", "coordinates": [ 39.233554982000101, 21.552669999000159 ] } },
{ "type": "Feature", "properties": { "OBJECTID": 243, "pkAutoServ": "23342000243", "fkAddressI": "2334283912587", "ArabicName": "مركز الكمبيوتير لصيانه السيارات", "EnglishNam": "computerized car maintenance center", "Subtype": 10102 }, "geometry": { "type": "Point", "coordinates": [ 39.207646968000176, 21.556477686000164 ] } },
{ "type": "Feature", "properties": { "OBJECTID": 244, "pkAutoServ": "23335000244", "fkAddressI": "2333568225447", "ArabicName": "السليماني للسيارات", "EnglishNam": "al sulaimani auto mobiles", "Subtype": 10101 }, "geometry": { "type": "Point", "coordinates": [ 39.206987037000033, 21.536836085000118 ] } },
{ "type": "Feature", "properties": { "OBJECTID": 245, "pkAutoServ": "22346000245", "fkAddressI": "2234640397635", "ArabicName": "محطة الهلابي للمحروقات", "EnglishNam": "al hlabbi gas station", "Subtype": 10108 }, "geometry": { "type": "Point", "coordinates": [ 39.256772229000035, 21.473907061000034 ] } },
{ "type": "Feature", "properties": { "OBJECTID": 246, "pkAutoServ": "23342000246", "fkAddressI": "2334275992335", "ArabicName": "المكتشف لتاجير السيارت", "EnglishNam": "discovry rent a car", "Subtype": 10106 }, "geometry": { "type": "Point", "coordinates": [ 39.205175227000041, 21.54923954800006 ] } },
{ "type": "Feature", "properties": { "OBJECTID": 247, "pkAutoServ": "23331000247", "fkAddressI": "2333135386241", "ArabicName": "الرضا لتاجير السيارات", "EnglishNam": "al rida rent a car", "Subtype": 10106 }, "geometry": { "type": "Point", "coordinates": [ 39.188435342000048, 21.53145148599998 ] } },
{ "type": "Feature", "properties": { "OBJECTID": 248, "pkAutoServ": "23832000248", "fkAddressI": "2383264933028", "ArabicName": "محطة العتيبي للمحروقات", "EnglishNam": "al utaibi gas station", "Subtype": 10108 }, "geometry": { "type": "Point", "coordinates": [ 39.124993415000063, 21.794652154000062 ] } },
{ "type": "Feature", "properties": { "OBJECTID": 249, "pkAutoServ": "23455000249", "fkAddressI": "2345577565355", "ArabicName": "محطة الزبالي للمحروقات البترولية", "EnglishNam": "al zabbaly gas station", "Subtype": 10108 }, "geometry": { "type": "Point", "coordinates": [ 39.224509006000176, 21.59564019000004 ] } },
{ "type": "Feature", "properties": { "OBJECTID": 250, "pkAutoServ": "23542000250", "fkAddressI": "2354222488913", "ArabicName": "محطة الواسع للمحروقات 4", "EnglishNam": "al wasi 4 gas station", "Subtype": 10108 }, "geometry": { "type": "Point", "coordinates": [ 39.184394287000089, 21.626247861000081 ] } },
{ "type": "Feature", "properties": { "OBJECTID": 251, "pkAutoServ": "23326000251", "fkAddressI": "2332631588929", "ArabicName": "شركة محمد يوسف ناغي للسيارات BMW", "EnglishNam": "mohammed yousif nagi co. - b.m.w", "Subtype": 10101 }, "geometry": { "type": "Point", "coordinates": [ 39.163701305000188, 21.549957684000162 ] } },
{ "type": "Feature", "properties": { "OBJECTID": 252, "pkAutoServ": "23326000252", "fkAddressI": "2332636908691", "ArabicName": "مكتب جدة نيسان موترز", "EnglishNam": "nissan motors (jeddah office)", "Subtype": 10103 }, "geometry": { "type": "Point", "coordinates": [ 39.168996423000067, 21.547539156000084 ] } },
{ "type": "Feature", "properties": { "OBJECTID": 253, "pkAutoServ": "23533000253", "fkAddressI": "2353337158110", "ArabicName": "الرحيلي لتاجير السيارات", "EnglishNam": "al rehaili rent a car", "Subtype": 10106 }, "geometry": { "type": "Point", "coordinates": [ 39.172207738000168, 21.616726030000109 ] } },
{ "type": "Feature", "properties": { "OBJECTID": 254, "pkAutoServ": "23455000254", "fkAddressI": "2345553147441", "ArabicName": "مركز ثرمو كنج للصيانة وقطع الغيار", "EnglishNam": "thermo king \/ service & sp. parts center", "Subtype": 10102 }, "geometry": { "type": "Point", "coordinates": [ 39.224132196000085, 21.592797198000028 ] } },
{ "type": "Feature", "properties": { "OBJECTID": 255, "pkAutoServ": "23451000255", "fkAddressI": "2345126987397", "ArabicName": "محطة الموج للمحروقات", "EnglishNam": "al mowj gas station", "Subtype": 10108 }, "geometry": { "type": "Point", "coordinates": [ 39.205159113000093, 21.574730503000069 ] } },
{ "type": "Feature", "properties": { "OBJECTID": 256, "pkAutoServ": "22341000256", "fkAddressI": "2234132858806", "ArabicName": "المخلص لتاجير السيارات", "EnglishNam": "al mukhlis rent a car", "Subtype": 10106 }, "geometry": { "type": "Point", "coordinates": [ 39.24964951200019, 21.484693192000123 ] } },
{ "type": "Feature", "properties": { "OBJECTID": 257, "pkAutoServ": "22342000257", "fkAddressI": "2234228926906", "ArabicName": "التيسير لتاجير السيارات", "EnglishNam": "al taysir rent a car", "Subtype": 10106 }, "geometry": { "type": "Point", "coordinates": [ 39.245735756000045, 21.467374560000167 ] } },
{ "type": "Feature", "properties": { "OBJECTID": 258, "pkAutoServ": "22365000258", "fkAddressI": null, "ArabicName": "محطة الجري للمحروقات", "EnglishNam": "al jari gas station", "Subtype": 10108 }, "geometry": { "type": "Point", "coordinates": [ 39.337709892000078, 21.441086602000041 ] } },
{ "type": "Feature", "properties": { "OBJECTID": 259, "pkAutoServ": "22375000259", "fkAddressI": "2237541707296", "ArabicName": "محطة مكة المكرمة للمحروقات", "EnglishNam": "makkah al mukaramah gas station", "Subtype": 10108 }, "geometry": { "type": "Point", "coordinates": [ 39.326784662000136, 21.450184811000099 ] } },
{ "type": "Feature", "properties": { "OBJECTID": 260, "pkAutoServ": "22232000260", "fkAddressI": "2223269133570", "ArabicName": "محطة محروقات", "EnglishNam": "gas station", "Subtype": 10108 }, "geometry": { "type": "Point", "coordinates": [ 39.173780844000078, 21.494808480000188 ] } },
{ "type": "Feature", "properties": { "OBJECTID": 2445, "pkAutoServ": "26523002445", "fkAddressI": "2652376413052", "ArabicName": "محطة بنزين", "EnglishNam": "gas station", "Subtype": 10108 }, "geometry": { "type": "Point", "coordinates": [ 40.423293095000076, 21.287832784000102 ] } },
{ "type": "Feature", "properties": { "OBJECTID": 2446, "pkAutoServ": "26522002446", "fkAddressI": "2652272325473", "ArabicName": "محطة الريان", "EnglishNam": "al rayan gas station", "Subtype": 10108 }, "geometry": { "type": "Point", "coordinates": [ 40.414431975000184, 21.280402761000062 ] } },
{ "type": "Feature", "properties": { "OBJECTID": 2447, "pkAutoServ": "26559002447", "fkAddressI": "2655991374027", "ArabicName": "محطة الري البترولية", "EnglishNam": "ar ray gas station", "Subtype": 10108 }, "geometry": { "type": "Point", "coordinates": [ 40.495990926000104, 21.422231980000163 ] } },
{ "type": "Feature", "properties": { "OBJECTID": 2588, "pkAutoServ": "25728002588", "fkAddressI": "2572889385403", "ArabicName": "مركز المدينة لصيانة السيارات", "EnglishNam": "al madinah car services center", "Subtype": 10102 }, "geometry": { "type": "Point", "coordinates": [ 39.033284171999981, 22.794300068000041 ] } },
{ "type": "Feature", "properties": { "OBJECTID": 2589, "pkAutoServ": "25753002589", "fkAddressI": "2575391672067", "ArabicName": "الرحيلي لتاجير السيارات", "EnglishNam": "al rihayli rent a car", "Subtype": 10106 }, "geometry": { "type": "Point", "coordinates": [ 39.033686783000178, 22.796016983000072 ] } },
{ "type": "Feature", "properties": { "OBJECTID": 2590, "pkAutoServ": "25753002590", "fkAddressI": "2575393752058", "ArabicName": "محطة الجواد للخدمات البترولية", "EnglishNam": "al jawad gas station", "Subtype": 10108 }, "geometry": { "type": "Point", "coordinates": [ 39.03369428200017, 22.797765648000109 ] } },
{ "type": "Feature", "properties": { "OBJECTID": 2591, "pkAutoServ": "25728002591", "fkAddressI": "2572851947028", "ArabicName": "محطة الشاطئ للمحروقات", "EnglishNam": "ash shati gas station", "Subtype": 10108 }, "geometry": { "type": "Point", "coordinates": [ 39.031315970000037, 22.777044066000144 ] } },
{ "type": "Feature", "properties": { "OBJECTID": 261, "pkAutoServ": "22363000261", "fkAddressI": "2236340048790", "ArabicName": "مركز ك 14 للخدمات البتروليه", "EnglishNam": "kilo 14 gas station", "Subtype": 10108 }, "geometry": { "type": "Point", "coordinates": [ 39.320081519000155, 21.448372617000075 ] } },
{ "type": "Feature", "properties": { "OBJECTID": 262, "pkAutoServ": "23341000262", "fkAddressI": "2334135206243", "ArabicName": "وكالة السيارات الراقية", "EnglishNam": "prestigeous car agency", "Subtype": 10101 }, "geometry": { "type": "Point", "coordinates": [ 39.216653437000105, 21.536905570000101 ] } },
{ "type": "Feature", "properties": { "OBJECTID": 263, "pkAutoServ": "22351000263", "fkAddressI": "2235164912496", "ArabicName": "محطة المحمدية للمحروقات", "EnglishNam": "al muhammadiyyah gas station", "Subtype": 10108 }, "geometry": { "type": "Point", "coordinates": [ 39.273041170000113, 21.475119243000108 ] } },
{ "type": "Feature", "properties": { "OBJECTID": 264, "pkAutoServ": "22342000264", "fkAddressI": "2234231846770", "ArabicName": "بقشان - قسم المعدات الثقيله", "EnglishNam": "bugshan \/ komatsu", "Subtype": 10103 }, "geometry": { "type": "Point", "coordinates": [ 39.248608069000113, 21.466146986000183 ] } },
{ "type": "Feature", "properties": { "OBJECTID": 265, "pkAutoServ": "23542000265", "fkAddressI": "2354230359572", "ArabicName": "المفتاح لتاجير السيارات", "EnglishNam": "key rent a car", "Subtype": 10106 }, "geometry": { "type": "Point", "coordinates": [ 39.191851829000029, 21.632324450000056 ] } },
{ "type": "Feature", "properties": { "OBJECTID": 266, "pkAutoServ": "23325000266", "fkAddressI": "2332587484310", "ArabicName": "طويق لتاجير السيارات", "EnglishNam": "tawiq rent a car", "Subtype": 10106 }, "geometry": { "type": "Point", "coordinates": [ 39.175051803000031, 21.547951181000144 ] } },
{ "type": "Feature", "properties": { "OBJECTID": 267, "pkAutoServ": "23326000267", "fkAddressI": "2332691244211", "ArabicName": "شركة الوسيلة لتاجير السيارات", "EnglishNam": "al wasylah rent a car", "Subtype": 10106 }, "geometry": { "type": "Point", "coordinates": [ 39.173868847000165, 21.551328422000097 ] } },
{ "type": "Feature", "properties": { "OBJECTID": 268, "pkAutoServ": "22416000268", "fkAddressI": "2241630606715", "ArabicName": "محطة الجوهره للمحروقات", "EnglishNam": "al gawhara gas station", "Subtype": 10108 }, "geometry": { "type": "Point", "coordinates": [ 39.257544372000098, 21.443031846000054 ] } },
{ "type": "Feature", "properties": { "OBJECTID": 269, "pkAutoServ": "23341000269", "fkAddressI": "2334134246205", "ArabicName": "دليل لتاجير السيارات", "EnglishNam": "daleel rent a car", "Subtype": 10106 }, "geometry": { "type": "Point", "coordinates": [ 39.215705884000101, 21.536727929000051 ] } },
{ "type": "Feature", "properties": { "OBJECTID": 270, "pkAutoServ": "23462000270", "fkAddressI": "2346246187478", "ArabicName": "محطة الاطلال للمحروقات", "EnglishNam": "al atlal petrol station", "Subtype": 10108 }, "geometry": { "type": "Point", "coordinates": [ 39.246316301000036, 21.595970661000138 ] } },
{ "type": "Feature", "properties": { "OBJECTID": 271, "pkAutoServ": "22356000271", "fkAddressI": "2235647146116", "ArabicName": "محطة بن يمين للمحروقات", "EnglishNam": "bin yamin gas station", "Subtype": 10108 }, "geometry": { "type": "Point", "coordinates": [ 39.299767238000072, 21.447803885000098 ] } },
{ "type": "Feature", "properties": { "OBJECTID": 272, "pkAutoServ": "22345000272", "fkAddressI": "2234581105472", "ArabicName": "محطة القحطاني للمحروقات", "EnglishNam": "al qahtani gas station", "Subtype": 10108 }, "geometry": { "type": "Point", "coordinates": [ 39.270695116000184, 21.478307772000051 ] } },
{ "type": "Feature", "properties": { "OBJECTID": 273, "pkAutoServ": "22235000273", "fkAddressI": "2223573414337", "ArabicName": "محطة محروقات", "EnglishNam": "gas station", "Subtype": 10108 }, "geometry": { "type": "Point", "coordinates": [ 39.181173928000192, 21.498752363000108 ] } },
{ "type": "Feature", "properties": { "OBJECTID": 274, "pkAutoServ": "22421000274", "fkAddressI": "2242132538593", "ArabicName": "محطة الخير للمحروقات", "EnglishNam": "alkhair gas station", "Subtype": 10108 }, "geometry": { "type": "Point", "coordinates": [ 39.202730124000141, 21.442299873000138 ] } },
{ "type": "Feature", "properties": { "OBJECTID": 275, "pkAutoServ": "23452000275", "fkAddressI": "2345229928287", "ArabicName": "محطة ومغسلة المانع للمحروقات", "EnglishNam": "al amnea gas station and car wash", "Subtype": 10108 }, "geometry": { "type": "Point", "coordinates": [ 39.201747682000189, 21.600500016000183 ] } },
{ "type": "Feature", "properties": { "OBJECTID": 276, "pkAutoServ": "22423000276", "fkAddressI": "2242355428041", "ArabicName": "محطة محروقات", "EnglishNam": "gas station (industrial city)", "Subtype": 10108 }, "geometry": { "type": "Point", "coordinates": [ 39.229527097000187, 21.427991487000043 ] } },
{ "type": "Feature", "properties": { "OBJECTID": 277, "pkAutoServ": "22423000277", "fkAddressI": "2242356468144", "ArabicName": "محطة سيسكو للمحروقات", "EnglishNam": "cesco gas station", "Subtype": 10108 }, "geometry": { "type": "Point", "coordinates": [ 39.23059147400005, 21.428974422000067 ] } },
{ "type": "Feature", "properties": { "OBJECTID": 278, "pkAutoServ": "23213000278", "fkAddressI": "2321366864205", "ArabicName": "محطة الواسط 2", "EnglishNam": "al waset 2 gas station", "Subtype": 10108 }, "geometry": { "type": "Point", "coordinates": [ 39.173747126000137, 21.512503704000039 ] } },
{ "type": "Feature", "properties": { "OBJECTID": 279, "pkAutoServ": "23731000279", "fkAddressI": "2373125746249", "ArabicName": "محطة ابحر للمحروقات", "EnglishNam": "ubhr gas station", "Subtype": 10108 }, "geometry": { "type": "Point", "coordinates": [ 39.102139270000123, 21.708374427000138 ] } },
{ "type": "Feature", "properties": { "OBJECTID": 280, "pkAutoServ": "22347000280", "fkAddressI": "2234728257075", "ArabicName": "محطة الوزيرية للمحروقات", "EnglishNam": "al wazzireyyah gas station", "Subtype": 10108 }, "geometry": { "type": "Point", "coordinates": [ 39.251348171000132, 21.45886185300003 ] } },
{ "type": "Feature", "properties": { "OBJECTID": 281, "pkAutoServ": "22321000281", "fkAddressI": "2232176143066", "ArabicName": "محطة الهنداوية للمحروقات", "EnglishNam": "al hindawiyyah gas station", "Subtype": 10108 }, "geometry": { "type": "Point", "coordinates": [ 39.186839826000039, 21.473541572000045 ] } },
{ "type": "Feature", "properties": { "OBJECTID": 282, "pkAutoServ": "22343000282", "fkAddressI": "2234351197735", "ArabicName": "محلات لقطع غيار السيارات", "EnglishNam": "auto spare parts exhibitions", "Subtype": 10104 }, "geometry": { "type": "Point", "coordinates": [ 39.247509106000052, 21.465789542000095 ] } },
{ "type": "Feature", "properties": { "OBJECTID": 283, "pkAutoServ": "22347000283", "fkAddressI": "2234738897168", "ArabicName": "محطة التسهيلات للمحروقات", "EnglishNam": "al tashilat gas station", "Subtype": 10108 }, "geometry": { "type": "Point", "coordinates": [ 39.261608196000054, 21.459680430000162 ] } },
{ "type": "Feature", "properties": { "OBJECTID": 284, "pkAutoServ": "23523000284", "fkAddressI": "2352326587888", "ArabicName": "ذيب لتاجير السيارات", "EnglishNam": "dhib rent a car", "Subtype": 10106 }, "geometry": { "type": "Point", "coordinates": [ 39.124582948000125, 21.607359059000032 ] } },
{ "type": "Feature", "properties": { "OBJECTID": 285, "pkAutoServ": "23423000285", "fkAddressI": "2342335007455", "ArabicName": "الحاج حسين علي رضا و شركاه - صيانة", "EnglishNam": "haji husein ali reza & co. ltd.", "Subtype": 10102 }, "geometry": { "type": "Point", "coordinates": [ 39.140365217000067, 21.559473873000172 ] } },
{ "type": "Feature", "properties": { "OBJECTID": 286, "pkAutoServ": "23324000286", "fkAddressI": "2332478424383", "ArabicName": "شركة الحمراني المتحدة - نيسان", "EnglishNam": "al hamrani united co. - nissan", "Subtype": 10101 }, "geometry": { "type": "Point", "coordinates": [ 39.175691992000111, 21.539847219000023 ] } },
{ "type": "Feature", "properties": { "OBJECTID": 287, "pkAutoServ": "23324000287", "fkAddressI": "2332443457720", "ArabicName": "هلا لتاجير السيارات", "EnglishNam": "hala rent a car", "Subtype": 10106 }, "geometry": { "type": "Point", "coordinates": [ 39.175357049000013, 21.53898422900005 ] } },
{ "type": "Feature", "properties": { "OBJECTID": 288, "pkAutoServ": "23321000288", "fkAddressI": "2332168723243", "ArabicName": "محطة نفط للمحروقات", "EnglishNam": "naft gas station", "Subtype": 10108 }, "geometry": { "type": "Point", "coordinates": [ 39.161502230000053, 21.526684290999981 ] } },
{ "type": "Feature", "properties": { "OBJECTID": 289, "pkAutoServ": "23212000289", "fkAddressI": "2321233027052", "ArabicName": "وكالة ساب للسيارات", "EnglishNam": "saab auto agency", "Subtype": 10101 }, "geometry": { "type": "Point", "coordinates": [ 39.164967098000034, 21.51577249800016 ] } },
{ "type": "Feature", "properties": { "OBJECTID": 290, "pkAutoServ": "22233000290", "fkAddressI": "2223373402708", "ArabicName": "مرحبا لتاجير السيارات", "EnglishNam": "marhaba rent a car", "Subtype": 10106 }, "geometry": { "type": "Point", "coordinates": [ 39.182759308000129, 21.488811608000162 ] } },
{ "type": "Feature", "properties": { "OBJECTID": 291, "pkAutoServ": "22342000291", "fkAddressI": "2234222027246", "ArabicName": "العبيدي لتاجير السيارات", "EnglishNam": "al ubaidi rent a car", "Subtype": 10106 }, "geometry": { "type": "Point", "coordinates": [ 39.239234034000162, 21.470511195000029 ] } },
{ "type": "Feature", "properties": { "OBJECTID": 292, "pkAutoServ": "23443000292", "fkAddressI": "2344365192502", "ArabicName": "امتكو - سيارات لادا", "EnglishNam": "imtco lada cars", "Subtype": 10103 }, "geometry": { "type": "Point", "coordinates": [ 39.164657104000128, 21.584367808000138 ] } },
{ "type": "Feature", "properties": { "OBJECTID": 293, "pkAutoServ": "23523000293", "fkAddressI": "2352378452359", "ArabicName": "محطات المساعد 2", "EnglishNam": "al musaid gas stations 2", "Subtype": 10108 }, "geometry": { "type": "Point", "coordinates": [ 39.121495930000151, 21.606826944000147 ] } },
{ "type": "Feature", "properties": { "OBJECTID": 294, "pkAutoServ": "22391000294", "fkAddressI": "2239135266049", "ArabicName": "محطة المالكي", "EnglishNam": "al malki gas station", "Subtype": 10108 }, "geometry": { "type": "Point", "coordinates": [ 39.343584333000024, 21.477008187000081 ] } },
{ "type": "Feature", "properties": { "OBJECTID": 295, "pkAutoServ": "22284000295", "fkAddressI": null, "ArabicName": "محطة ابن شحمان للمحروقات", "EnglishNam": "ibn shahman gas station", "Subtype": 10108 }, "geometry": { "type": "Point", "coordinates": [ 39.364431250000166, 21.496099991000051 ] } },
{ "type": "Feature", "properties": { "OBJECTID": 296, "pkAutoServ": "22392000296", "fkAddressI": null, "ArabicName": "محطة العوفي للمحروقات", "EnglishNam": "al awfi gas station", "Subtype": 10108 }, "geometry": { "type": "Point", "coordinates": [ 39.356451890000073, 21.477255955000146 ] } },
{ "type": "Feature", "properties": { "OBJECTID": 297, "pkAutoServ": "22324000297", "fkAddressI": "2232434917162", "ArabicName": "محطة بن حجلان للمحروقات", "EnglishNam": "bin hajlan gas station", "Subtype": 10108 }, "geometry": { "type": "Point", "coordinates": [ 39.190966550000098, 21.469471860000112 ] } },
{ "type": "Feature", "properties": { "OBJECTID": 298, "pkAutoServ": "22349000298", "fkAddressI": "2234974673509", "ArabicName": "محطة الجارد للمحروقات", "EnglishNam": "al jarid gas station", "Subtype": 10108 }, "geometry": { "type": "Point", "coordinates": [ 39.273506311000176, 21.453936750000139 ] } },
{ "type": "Feature", "properties": { "OBJECTID": 299, "pkAutoServ": "22246000299", "fkAddressI": "2224642126897", "ArabicName": "محطة نفط للمحروقات", "EnglishNam": "naft gas station", "Subtype": 10108 }, "geometry": { "type": "Point", "coordinates": [ 39.223875593000116, 21.490273093000042 ] } },
{ "type": "Feature", "properties": { "OBJECTID": 300, "pkAutoServ": "22232000300", "fkAddressI": "2223265204268", "ArabicName": "محطة نفط للمحروقات", "EnglishNam": "naft gas station", "Subtype": 10108 }, "geometry": { "type": "Point", "coordinates": [ 39.180622890000109, 21.491257608000012 ] } },
{ "type": "Feature", "properties": { "OBJECTID": 2878, "pkAutoServ": "28429002878", "fkAddressI": "2842932407373", "ArabicName": "معرض الغيثي للسيارات", "EnglishNam": "al ghaythi auto showroom", "Subtype": 10103 }, "geometry": { "type": "Point", "coordinates": [ 40.283554341000183, 20.153434276000098 ] } },
{ "type": "Feature", "properties": { "OBJECTID": 2879, "pkAutoServ": "28425002879", "fkAddressI": "2842540917470", "ArabicName": "مركز خدمة سيارات الديرة", "EnglishNam": "ad dirah auto service center", "Subtype": 10102 }, "geometry": { "type": "Point", "coordinates": [ 40.269258063000166, 20.151065356000061 ] } },
{ "type": "Feature", "properties": { "OBJECTID": 2880, "pkAutoServ": "28455002880", "fkAddressI": "2845534366153", "ArabicName": "مجمع ريدان للخدمات البترولية", "EnglishNam": "raidan gas station", "Subtype": 10108 }, "geometry": { "type": "Point", "coordinates": [ 40.287825647000091, 20.154972051000072 ] } },
{ "type": "Feature", "properties": { "OBJECTID": 2907, "pkAutoServ": "28425002907", "fkAddressI": "2842537686716", "ArabicName": "محطة الحرمين للخدمات البترولية", "EnglishNam": "al haramain gas station", "Subtype": 10108 }, "geometry": { "type": "Point", "coordinates": [ 40.266110516000083, 20.144282078000117 ] } },
{ "type": "Feature", "properties": { "OBJECTID": 2908, "pkAutoServ": "28425002908", "fkAddressI": "2842541277472", "ArabicName": "النفيسة للخدمات البترولية", "EnglishNam": "an nafisah gas station", "Subtype": 10108 }, "geometry": { "type": "Point", "coordinates": [ 40.269588943000031, 20.151087253000185 ] } },
{ "type": "Feature", "properties": { "OBJECTID": 2909, "pkAutoServ": "28821002909", "fkAddressI": "2882178404943", "ArabicName": "مجمع يافع للمحروقات", "EnglishNam": "yafa' gas station", "Subtype": 10108 }, "geometry": { "type": "Point", "coordinates": [ 41.082304532000137, 19.149672568000085 ] } },
{ "type": "Feature", "properties": { "OBJECTID": 2910, "pkAutoServ": "28822002910", "fkAddressI": "2882286693883", "ArabicName": "محطة الخلف للخدمات البترولية", "EnglishNam": "al khalaf gas station", "Subtype": 10108 }, "geometry": { "type": "Point", "coordinates": [ 41.085340418000158, 19.127974528000152 ] } },
{ "type": "Feature", "properties": { "OBJECTID": 2911, "pkAutoServ": "28822002911", "fkAddressI": "2882289684374", "ArabicName": "محطة الوطنية للخدمات البترولية", "EnglishNam": "al wataniyah gas station", "Subtype": 10108 }, "geometry": { "type": "Point", "coordinates": [ 41.090049452000073, 19.130612059000157 ] } },
{ "type": "Feature", "properties": { "OBJECTID": 2912, "pkAutoServ": "28822002912", "fkAddressI": "2882291833450", "ArabicName": "مجمع السراة للخدمات البترولية", "EnglishNam": "as sirat gas station", "Subtype": 10108 }, "geometry": { "type": "Point", "coordinates": [ 41.081295124000121, 19.132660326000121 ] } },
{ "type": "Feature", "properties": { "OBJECTID": 2938, "pkAutoServ": "28429002938", "fkAddressI": "2842924336422", "ArabicName": "محطة الشاطئ للخدمات البترولية", "EnglishNam": "ash shati' gas station", "Subtype": 10108 }, "geometry": { "type": "Point", "coordinates": [ 40.275758620000033, 20.144894796000187 ] } },
{ "type": "Feature", "properties": { "OBJECTID": 2939, "pkAutoServ": "28429002939", "fkAddressI": "2842932227370", "ArabicName": "معرض سيارات", "EnglishNam": "car showroom", "Subtype": 10103 }, "geometry": { "type": "Point", "coordinates": [ 40.283382010000025, 20.153405218000046 ] } },
{ "type": "Feature", "properties": { "OBJECTID": 2940, "pkAutoServ": "28433002940", "fkAddressI": "2843351826144", "ArabicName": "محطة وقود", "EnglishNam": "gas station", "Subtype": 10108 }, "geometry": { "type": "Point", "coordinates": [ 40.265501932000177, 20.222851668000089 ] } },
{ "type": "Feature", "properties": { "OBJECTID": 2941, "pkAutoServ": "28821002941", "fkAddressI": "2882167124769", "ArabicName": "محطة وقود", "EnglishNam": "gas station", "Subtype": 10108 }, "geometry": { "type": "Point", "coordinates": [ 41.080515610000077, 19.139521700999978 ] } },
{ "type": "Feature", "properties": { "OBJECTID": 2942, "pkAutoServ": "28822002942", "fkAddressI": "2882291984286", "ArabicName": "معرض سيارات", "EnglishNam": "car showroom", "Subtype": 10103 }, "geometry": { "type": "Point", "coordinates": [ 41.089236013000175, 19.132694674000106 ] } },
{ "type": "Feature", "properties": { "OBJECTID": 2943, "pkAutoServ": "28824002943", "fkAddressI": "2882434238144", "ArabicName": "محطة تهامة للمواد البترولية", "EnglishNam": "tuhamah gas station", "Subtype": 10108 }, "geometry": { "type": "Point", "coordinates": [ 41.140989010000055, 19.114346458000057 ] } },
{ "type": "Feature", "properties": { "OBJECTID": 2963, "pkAutoServ": "28427002963", "fkAddressI": "2842749219223", "ArabicName": "محطة وقود", "EnglishNam": "gas station", "Subtype": 10108 }, "geometry": { "type": "Point", "coordinates": [ 40.25983176800014, 20.224917760000153 ] } },
{ "type": "Feature", "properties": { "OBJECTID": 2964, "pkAutoServ": "28454002964", "fkAddressI": "2845437237252", "ArabicName": "مجمع النفيسة للخدمات البترولية", "EnglishNam": "an nafish gas station", "Subtype": 10108 }, "geometry": { "type": "Point", "coordinates": [ 40.303222002000098, 20.137708479000025 ] } },
{ "type": "Feature", "properties": { "OBJECTID": 2965, "pkAutoServ": "28429002965", "fkAddressI": "2842969213244", "ArabicName": "محطة وقود", "EnglishNam": "gas station", "Subtype": 10108 }, "geometry": { "type": "Point", "coordinates": [ 40.283564588000047, 20.14934871000014 ] } },
{ "type": "Feature", "properties": { "OBJECTID": 2966, "pkAutoServ": "28429002966", "fkAddressI": "2842932677316", "ArabicName": "محطة وقود ابن علوي", "EnglishNam": "ibn alawi gas station", "Subtype": 10108 }, "geometry": { "type": "Point", "coordinates": [ 40.283650888000068, 20.152884925000023 ] } },
{ "type": "Feature", "properties": { "OBJECTID": 2967, "pkAutoServ": "28823002967", "fkAddressI": "2882322297840", "ArabicName": "معرض الزيادي للسيارات", "EnglishNam": "az zaydi car showroom", "Subtype": 10103 }, "geometry": { "type": "Point", "coordinates": [ 41.102701938000109, 19.118087597000056 ] } },
{ "type": "Feature", "properties": { "OBJECTID": 2992, "pkAutoServ": "28425002992", "fkAddressI": "2842545707569", "ArabicName": "الشركة المتحدة لبيع السيارات بالتقسيط _تايوتا", "EnglishNam": "united auto company-toyota", "Subtype": 10101 }, "geometry": { "type": "Point", "coordinates": [ 40.27373280300003, 20.151870737000138 ] } },
{ "type": "Feature", "properties": { "OBJECTID": 2997, "pkAutoServ": "28822002997", "fkAddressI": "2882241228843", "ArabicName": "الغربي لتاجير السيارات", "EnglishNam": "al gharbi rent a car", "Subtype": 10106 }, "geometry": { "type": "Point", "coordinates": [ 41.087808724000126, 19.129304422000075 ] } },
{ "type": "Feature", "properties": { "OBJECTID": 2998, "pkAutoServ": "28823002998", "fkAddressI": "2882324147921", "ArabicName": "محطة الاوائل للخدمات البترولية", "EnglishNam": "al awail gas station", "Subtype": 10108 }, "geometry": { "type": "Point", "coordinates": [ 41.104473463000033, 19.118803186000036 ] } },
{ "type": "Feature", "properties": { "OBJECTID": 2999, "pkAutoServ": "28821002999", "fkAddressI": "2882172264737", "ArabicName": "فراس لتاجير السيارات", "EnglishNam": "firas rent a car", "Subtype": 10106 }, "geometry": { "type": "Point", "coordinates": [ 41.080238754000106, 19.144518699000116 ] } },
{ "type": "Feature", "properties": { "OBJECTID": 3000, "pkAutoServ": "28822003000", "fkAddressI": "2882289684374", "ArabicName": "الحازمي لتاجير السيارات", "EnglishNam": "al hazimi rent a car", "Subtype": 10106 }, "geometry": { "type": "Point", "coordinates": [ 41.090062741000168, 19.130487572999982 ] } },
{ "type": "Feature", "properties": { "OBJECTID": 301, "pkAutoServ": "23817000301", "fkAddressI": "2381780164604", "ArabicName": "محطة النخيل للمحروقات", "EnglishNam": "al nakhil gas station", "Subtype": 10108 }, "geometry": { "type": "Point", "coordinates": [ 39.122198752000031, 21.755903604000139 ] } },
{ "type": "Feature", "properties": { "OBJECTID": 302, "pkAutoServ": "23523000302", "fkAddressI": "2352336088110", "ArabicName": "المفتاح لتاجير السيارات", "EnglishNam": "key rent a car", "Subtype": 10106 }, "geometry": { "type": "Point", "coordinates": [ 39.13340603000006, 21.609344899000064 ] } },
{ "type": "Feature", "properties": { "OBJECTID": 303, "pkAutoServ": "23523000303", "fkAddressI": "2352381372268", "ArabicName": "محطة نفط للمحروقات", "EnglishNam": "naft gas station", "Subtype": 10108 }, "geometry": { "type": "Point", "coordinates": [ 39.120535970000162, 21.609725434000154 ] } },
{ "type": "Feature", "properties": { "OBJECTID": 304, "pkAutoServ": "22235000304", "fkAddressI": "2223556467002", "ArabicName": "محطة الجار الله للخدمات البترولية", "EnglishNam": "jar allah petrol station", "Subtype": 10108 }, "geometry": { "type": "Point", "coordinates": [ 39.193803274000118, 21.495593791999966 ] } },
{ "type": "Feature", "properties": { "OBJECTID": 305, "pkAutoServ": "23437000305", "fkAddressI": "2343779403852", "ArabicName": "شركة اليمامه لتاجير السيارات", "EnglishNam": "al yamamah rent a car", "Subtype": 10106 }, "geometry": { "type": "Point", "coordinates": [ 39.161069685000086, 21.592491731000052 ] } },
{ "type": "Feature", "properties": { "OBJECTID": 306, "pkAutoServ": "23525000306", "fkAddressI": "2352574004010", "ArabicName": "معرض سيارات - دايو موتور", "EnglishNam": "daewoo motor", "Subtype": 10103 }, "geometry": { "type": "Point", "coordinates": [ 39.156612344000109, 21.606327039000121 ] } },
{ "type": "Feature", "properties": { "OBJECTID": 307, "pkAutoServ": "23326000307", "fkAddressI": "2332631588929", "ArabicName": "مركز محمد يوسف للاستبدال والمستعمل", "EnglishNam": "mohd. yousif center for exchange", "Subtype": 10103 }, "geometry": { "type": "Point", "coordinates": [ 39.163926842000137, 21.549092266000173 ] } },
{ "type": "Feature", "properties": { "OBJECTID": 308, "pkAutoServ": "23325000308", "fkAddressI": "2332588004300", "ArabicName": "الصافي لتاجير السيارات", "EnglishNam": "al safi rent a car", "Subtype": 10106 }, "geometry": { "type": "Point", "coordinates": [ 39.174883157000068, 21.54851843099999 ] } },
{ "type": "Feature", "properties": { "OBJECTID": 309, "pkAutoServ": "22235000309", "fkAddressI": "2223575475026", "ArabicName": "سعيد العامودي للسيارات", "EnglishNam": "saeed al amudi cars", "Subtype": 10103 }, "geometry": { "type": "Point", "coordinates": [ 39.187833047000083, 21.500603442000056 ] } },
{ "type": "Feature", "properties": { "OBJECTID": 310, "pkAutoServ": "23531000310", "fkAddressI": "2353164143596", "ArabicName": "محطة و مغسلة السفري للمحروقات", "EnglishNam": "al safari gas station and car wash", "Subtype": 10108 }, "geometry": { "type": "Point", "coordinates": [ 39.170944905, 21.60120563400011 ] } },
{ "type": "Feature", "properties": { "OBJECTID": 311, "pkAutoServ": "22335000311", "fkAddressI": "2233579425109", "ArabicName": "جمجوم للسيارات و المعدات", "EnglishNam": "jamjum tolls & cars", "Subtype": 10103 }, "geometry": { "type": "Point", "coordinates": [ 39.227725710000072, 21.473192207000181 ] } },
{ "type": "Feature", "properties": { "OBJECTID": 312, "pkAutoServ": "23531000312", "fkAddressI": "2353121097783", "ArabicName": "البريك لتاجير السيارات", "EnglishNam": "al barik rent a car", "Subtype": 10106 }, "geometry": { "type": "Point", "coordinates": [ 39.15646799100017, 21.613611291999973 ] } },
{ "type": "Feature", "properties": { "OBJECTID": 313, "pkAutoServ": "22322000313", "fkAddressI": "2232230837029", "ArabicName": "شركة عبد الله هاشم المحدودة - مركز صيانة هوندا", "EnglishNam": "abdullah hashim limited company", "Subtype": 10102 }, "geometry": { "type": "Point", "coordinates": [ 39.187036362000129, 21.46815546900018 ] } },
{ "type": "Feature", "properties": { "OBJECTID": 314, "pkAutoServ": "22374000314", "fkAddressI": "2237447698166", "ArabicName": "محطة الحربي للمحروقات", "EnglishNam": "al harbi gas station", "Subtype": 10108 }, "geometry": { "type": "Point", "coordinates": [ 39.332339612, 21.47900034800017 ] } },
{ "type": "Feature", "properties": { "OBJECTID": 315, "pkAutoServ": "23443000315", "fkAddressI": null, "ArabicName": "شركة عبدالله هاشم المحدودة - وكالة هوندا", "EnglishNam": "abdullah hashim co. ltd.  - honda", "Subtype": 10101 }, "geometry": { "type": "Point", "coordinates": [ 39.162270037999974, 21.592434906000051 ] } },
{ "type": "Feature", "properties": { "OBJECTID": 316, "pkAutoServ": "23436000316", "fkAddressI": "2343672784009", "ArabicName": "المتميزة لتاجير السيارات", "EnglishNam": "al mutamayzah rent a car", "Subtype": 10106 }, "geometry": { "type": "Point", "coordinates": [ 39.162774941000123, 21.586210727000093 ] } },
{ "type": "Feature", "properties": { "OBJECTID": 317, "pkAutoServ": "22338000317", "fkAddressI": "2233866714079", "ArabicName": "محطة الثغر للمحروقات", "EnglishNam": "thager petrol station", "Subtype": 10108 }, "geometry": { "type": "Point", "coordinates": [ 39.227645693999989, 21.476983543000188 ] } },
{ "type": "Feature", "properties": { "OBJECTID": 318, "pkAutoServ": "22235000318", "fkAddressI": "2223570545697", "ArabicName": "معرض وصاله باحشوان لتجاره السيارات", "EnglishNam": "bahashwan car trading showroom", "Subtype": 10103 }, "geometry": { "type": "Point", "coordinates": [ 39.194310493999978, 21.496070455000108 ] } },
{ "type": "Feature", "properties": { "OBJECTID": 319, "pkAutoServ": "23436000319", "fkAddressI": "2343672784009", "ArabicName": "العبيري لتاجير السيارات", "EnglishNam": "al ubaidi rent a car", "Subtype": 10106 }, "geometry": { "type": "Point", "coordinates": [ 39.162746051000056, 21.586296870000069 ] } },
{ "type": "Feature", "properties": { "OBJECTID": 320, "pkAutoServ": "22331000320", "fkAddressI": "2233176392059", "ArabicName": "محطة سارة", "EnglishNam": "sarah gas station", "Subtype": 10108 }, "geometry": { "type": "Point", "coordinates": [ 39.208122181000135, 21.485781709000037 ] } },
{ "type": "Feature", "properties": { "OBJECTID": 3001, "pkAutoServ": "28821003001", "fkAddressI": "2882142866069", "ArabicName": "شركة الارس العالمية لتاجير السيارات", "EnglishNam": "al aras rent a car", "Subtype": 10106 }, "geometry": { "type": "Point", "coordinates": [ 41.075854176000064, 19.133652190000078 ] } },
{ "type": "Feature", "properties": { "OBJECTID": 3002, "pkAutoServ": "28827003002", "fkAddressI": "2882768093021", "ArabicName": "معرض سيارات", "EnglishNam": "car showroom", "Subtype": 10103 }, "geometry": { "type": "Point", "coordinates": [ 41.090844261000029, 19.130819849000147 ] } },
{ "type": "Feature", "properties": { "OBJECTID": 3003, "pkAutoServ": "28823003003", "fkAddressI": "2882322447947", "ArabicName": "معرض تهامة للسيارات", "EnglishNam": "tuhamah car showroom", "Subtype": 10103 }, "geometry": { "type": "Point", "coordinates": [ 41.102855412000054, 19.119053256000086 ] } },
{ "type": "Feature", "properties": { "OBJECTID": 3034, "pkAutoServ": "28814003034", "fkAddressI": "2881490163818", "ArabicName": "محطة شاطئ حنيش للمحروقات", "EnglishNam": "shati hunaish gas station", "Subtype": 10108 }, "geometry": { "type": "Point", "coordinates": [ 41.087888461000034, 19.188004732000024 ] } },
{ "type": "Feature", "properties": { "OBJECTID": 3035, "pkAutoServ": "28823003035", "fkAddressI": "2882321417844", "ArabicName": "محطة الناشري للمواد البترولية", "EnglishNam": "an nashiri gas station", "Subtype": 10108 }, "geometry": { "type": "Point", "coordinates": [ 41.101873761000093, 19.118138474999967 ] } },
{ "type": "Feature", "properties": { "OBJECTID": 3036, "pkAutoServ": "28822003036", "fkAddressI": "2882292904255", "ArabicName": "معرض البشائر للسيارات", "EnglishNam": "al bashair car showroom", "Subtype": 10103 }, "geometry": { "type": "Point", "coordinates": [ 41.088950375000138, 19.13354449100018 ] } },
{ "type": "Feature", "properties": { "OBJECTID": 3037, "pkAutoServ": "28821003037", "fkAddressI": "2882163154232", "ArabicName": "محطة وقود", "EnglishNam": "gas station", "Subtype": 10108 }, "geometry": { "type": "Point", "coordinates": [ 41.075373039000112, 19.135992561000023 ] } },
{ "type": "Feature", "properties": { "OBJECTID": 3038, "pkAutoServ": "28821003038", "fkAddressI": "2882178313593", "ArabicName": "محطة وقود", "EnglishNam": "gas station", "Subtype": 10108 }, "geometry": { "type": "Point", "coordinates": [ 41.069470350000131, 19.149714095999968 ] } },
{ "type": "Feature", "properties": { "OBJECTID": 3039, "pkAutoServ": "28827003039", "fkAddressI": "2882767753011", "ArabicName": "معرض سيارات", "EnglishNam": "car showroom", "Subtype": 10103 }, "geometry": { "type": "Point", "coordinates": [ 41.090962583000191, 19.130600313000116 ] } },
{ "type": "Feature", "properties": { "OBJECTID": 321, "pkAutoServ": "23216000321", "fkAddressI": "2321671383329", "ArabicName": "محطة الستين للمحروقات", "EnglishNam": "al sittin gas station", "Subtype": 10108 }, "geometry": { "type": "Point", "coordinates": [ 39.192186537000055, 21.520928415000185 ] } },
{ "type": "Feature", "properties": { "OBJECTID": 322, "pkAutoServ": "23218000322", "fkAddressI": "2321875532244", "ArabicName": "البراق لتاجير السيارات", "EnglishNam": "al buraq rent a car", "Subtype": 10106 }, "geometry": { "type": "Point", "coordinates": [ 39.181681036000043, 21.524440505000143 ] } },
{ "type": "Feature", "properties": { "OBJECTID": 323, "pkAutoServ": "23531000323", "fkAddressI": "2353173263323", "ArabicName": "محطة بنزين السيد", "EnglishNam": "al sayid gas station", "Subtype": 10108 }, "geometry": { "type": "Point", "coordinates": [ 39.168206982000072, 21.609597044000054 ] } },
{ "type": "Feature", "properties": { "OBJECTID": 324, "pkAutoServ": "23236000324", "fkAddressI": "2323647006141", "ArabicName": "محطة بالبيد للمحروقات", "EnglishNam": "balubaid gas station", "Subtype": 10108 }, "geometry": { "type": "Point", "coordinates": [ 39.243787503000021, 21.51053650599999 ] } },
{ "type": "Feature", "properties": { "OBJECTID": 325, "pkAutoServ": "23436000325", "fkAddressI": "2343676763812", "ArabicName": "شركة توكيلات الجزيرة للسيارات المتحدة", "EnglishNam": "al jazira auto - agencie", "Subtype": 10101 }, "geometry": { "type": "Point", "coordinates": [ 39.16070242800015, 21.589890352000168 ] } },
{ "type": "Feature", "properties": { "OBJECTID": 326, "pkAutoServ": "23216000326", "fkAddressI": "2321668223319", "ArabicName": "الحاج حسين علي رضا - مركز السيارات المستعملة", "EnglishNam": "al haj h. a. reda (used car center)", "Subtype": 10103 }, "geometry": { "type": "Point", "coordinates": [ 39.192087721, 21.518065059000037 ] } },
{ "type": "Feature", "properties": { "OBJECTID": 327, "pkAutoServ": "23443000327", "fkAddressI": "2344379263294", "ArabicName": "العبيري لتاجير السيارات", "EnglishNam": "al ubaidi rent a car", "Subtype": 10106 }, "geometry": { "type": "Point", "coordinates": [ 39.172318814000107, 21.597036439000192 ] } },
{ "type": "Feature", "properties": { "OBJECTID": 328, "pkAutoServ": "23531000328", "fkAddressI": "2353121097783", "ArabicName": "الرضا لتاجير السيارات", "EnglishNam": "al rida rent a car", "Subtype": 10106 }, "geometry": { "type": "Point", "coordinates": [ 39.15645027000005, 21.613674565000167 ] } },
{ "type": "Feature", "properties": { "OBJECTID": 329, "pkAutoServ": "22325000329", "fkAddressI": "2232544467872", "ArabicName": "المحطة الجنوبية للمحروقات", "EnglishNam": "southern gas station", "Subtype": 10108 }, "geometry": { "type": "Point", "coordinates": [ 39.200188825000112, 21.475891376000163 ] } },
{ "type": "Feature", "properties": { "OBJECTID": 330, "pkAutoServ": "23338000330", "fkAddressI": "2333887644096", "ArabicName": "محطة سليمان العقل للمحروقات", "EnglishNam": "sulayman al aql gas station", "Subtype": 10108 }, "geometry": { "type": "Point", "coordinates": [ 39.19390102400007, 21.554378851000138 ] } },
{ "type": "Feature", "properties": { "OBJECTID": 331, "pkAutoServ": "23336000331", "fkAddressI": "2333640797694", "ArabicName": "محطة غرناطة للمحروقات 218", "EnglishNam": "ghirnath gas station 218", "Subtype": 10108 }, "geometry": { "type": "Point", "coordinates": [ 39.193725043000143, 21.544724569000152 ] } },
{ "type": "Feature", "properties": { "OBJECTID": 332, "pkAutoServ": "23236000332", "fkAddressI": "2323666505231", "ArabicName": "محطة احمد بن صويلح الحربي واولاده", "EnglishNam": "ahmed bin suilah al harbi petrol station", "Subtype": 10108 }, "geometry": { "type": "Point", "coordinates": [ 39.248582738000039, 21.515123878000168 ] } },
{ "type": "Feature", "properties": { "OBJECTID": 333, "pkAutoServ": "23218000333", "fkAddressI": "2321875532244", "ArabicName": "محطة محروقات", "EnglishNam": "gas station", "Subtype": 10108 }, "geometry": { "type": "Point", "coordinates": [ 39.181605588000025, 21.524640667000028 ] } },
{ "type": "Feature", "properties": { "OBJECTID": 334, "pkAutoServ": "23216000334", "fkAddressI": "2321664972255", "ArabicName": "محطة الرويس الغربية للمحروقات", "EnglishNam": "al ruwais gas station", "Subtype": 10108 }, "geometry": { "type": "Point", "coordinates": [ 39.181810242000097, 21.515135317000102 ] } },
{ "type": "Feature", "properties": { "OBJECTID": 335, "pkAutoServ": "23236000335", "fkAddressI": "2323647786162", "ArabicName": "بالبيد لقطع الغيار ومركز الخدمة", "EnglishNam": "balubaid services spare parts center", "Subtype": 10104 }, "geometry": { "type": "Point", "coordinates": [ 39.244521469000176, 21.510723507000137 ] } },
{ "type": "Feature", "properties": { "OBJECTID": 336, "pkAutoServ": "23448000336", "fkAddressI": "2344864195427", "ArabicName": "صالة الماهر للسيارات", "EnglishNam": "al mahir car hall", "Subtype": 10103 }, "geometry": { "type": "Point", "coordinates": [ 39.192909527000154, 21.583441518000029 ] } },
{ "type": "Feature", "properties": { "OBJECTID": 337, "pkAutoServ": "23446000337", "fkAddressI": "2344639906675", "ArabicName": "مركز البارود للمحروقات وخدمة السيارات", "EnglishNam": "al barud gas station center", "Subtype": 10108 }, "geometry": { "type": "Point", "coordinates": [ 39.179064768000103, 21.585689155000125 ] } },
{ "type": "Feature", "properties": { "OBJECTID": 338, "pkAutoServ": "22325000338", "fkAddressI": "2232586405134", "ArabicName": "معرض الحرمين للسيارات", "EnglishNam": "al haramain car showroom", "Subtype": 10103 }, "geometry": { "type": "Point", "coordinates": [ 39.206836358000089, 21.482870621000188 ] } },
{ "type": "Feature", "properties": { "OBJECTID": 339, "pkAutoServ": "23345000339", "fkAddressI": "2334538539339", "ArabicName": "العيسى لخدمة السيارات", "EnglishNam": "al isa auto motors services", "Subtype": 10106 }, "geometry": { "type": "Point", "coordinates": [ 39.219669913000075, 21.565002174000085 ] } },
{ "type": "Feature", "properties": { "OBJECTID": 340, "pkAutoServ": "23343000340", "fkAddressI": "2334341366369", "ArabicName": "معرض السلطان للسيارات", "EnglishNam": "alsultan (car showroom)", "Subtype": 10103 }, "geometry": { "type": "Point", "coordinates": [ 39.222573757000191, 21.53819773400005 ] } },
{ "type": "Feature", "properties": { "OBJECTID": 3247, "pkAutoServ": "29574003247", "fkAddressI": "2957431598962", "ArabicName": "محطة وقود", "EnglishNam": "Gas Station", "Subtype": 10108 }, "geometry": { "type": "Point", "coordinates": [ 41.685110997000095, 21.278648077000184 ] } },
{ "type": "Feature", "properties": { "OBJECTID": 3257, "pkAutoServ": "29734003257", "fkAddressI": "2973440978247", "ArabicName": "تشليح المرزوقي", "EnglishNam": "Al Marzuqi Auction", "Subtype": 10104 }, "geometry": { "type": "Point", "coordinates": [ 41.580352239000092, 21.187906269000109 ] } },
{ "type": "Feature", "properties": { "OBJECTID": 3258, "pkAutoServ": "29734003258", "fkAddressI": "2973446577798", "ArabicName": "معرض حباب فيصل البقمي للسيارات", "EnglishNam": "Habbab Faysal Al Qiyhmi Auto Showroom", "Subtype": 10103 }, "geometry": { "type": "Point", "coordinates": [ 41.585788935000153, 21.183775357000115 ] } },
{ "type": "Feature", "properties": { "OBJECTID": 3259, "pkAutoServ": "29734003259", "fkAddressI": "2973449837498", "ArabicName": "تشليح الراضي", "EnglishNam": "Ar Radi Auction", "Subtype": 10104 }, "geometry": { "type": "Point", "coordinates": [ 41.588827218000063, 21.181057051000039 ] } },
{ "type": "Feature", "properties": { "OBJECTID": 3260, "pkAutoServ": "29734003260", "fkAddressI": "2973477624775", "ArabicName": "معرض التسهيلات للسيارات", "EnglishNam": "At Tashilat Gas Station", "Subtype": 10103 }, "geometry": { "type": "Point", "coordinates": [ 41.586808878000056, 21.183419519000154 ] } },
{ "type": "Feature", "properties": { "OBJECTID": 3261, "pkAutoServ": "29734003261", "fkAddressI": "2973477304803", "ArabicName": "مقعد بن راجح البقمي للسيارات", "EnglishNam": "Miq'id Ibn Rajih Al Buqami Auto Showroom", "Subtype": 10103 }, "geometry": { "type": "Point", "coordinates": [ 41.58708410700018, 21.183135937000145 ] } },
{ "type": "Feature", "properties": { "OBJECTID": 3262, "pkAutoServ": "29734003262", "fkAddressI": "2973476184901", "ArabicName": "معرض الخليج للسيارات", "EnglishNam": "Al Khalij Auto Showroom", "Subtype": 10103 }, "geometry": { "type": "Point", "coordinates": [ 41.588006438000036, 21.182105075000095 ] } },
{ "type": "Feature", "properties": { "OBJECTID": 3263, "pkAutoServ": "29734003263", "fkAddressI": "2973478004743", "ArabicName": "معرض الشريف للسيارات", "EnglishNam": "Ash Sharif Auto Showroom", "Subtype": 10103 }, "geometry": { "type": "Point", "coordinates": [ 41.586504805000061, 21.183760085000074 ] } },
{ "type": "Feature", "properties": { "OBJECTID": 3264, "pkAutoServ": "29734003264", "fkAddressI": "2973479384627", "ArabicName": "معرض ناصر العدواني للسيارات", "EnglishNam": "Nasir Al Udwani Auto Showroom", "Subtype": 10103 }, "geometry": { "type": "Point", "coordinates": [ 41.585411671000031, 21.185024908000173 ] } },
{ "type": "Feature", "properties": { "OBJECTID": 3265, "pkAutoServ": "29734003265", "fkAddressI": "2973446167860", "ArabicName": "معرض بدر للسيارات", "EnglishNam": "Badr Auto Shoroom", "Subtype": 10103 }, "geometry": { "type": "Point", "coordinates": [ 41.58527812400007, 21.184335655000098 ] } },
{ "type": "Feature", "properties": { "OBJECTID": 3266, "pkAutoServ": "29751003266", "fkAddressI": "2975133938523", "ArabicName": "محطة الفرسان للخدمات البترولية", "EnglishNam": "Al Fursan Gas Station", "Subtype": 10108 }, "geometry": { "type": "Point", "coordinates": [ 41.621398238000097, 21.218158144000029 ] } },
{ "type": "Feature", "properties": { "OBJECTID": 3267, "pkAutoServ": "29734003267", "fkAddressI": "2973445917905", "ArabicName": "معرض الجزيرة للسيارات", "EnglishNam": "Al Jazirah Car Showroom", "Subtype": 10103 }, "geometry": { "type": "Point", "coordinates": [ 41.58504825600005, 21.184739844000035 ] } },
{ "type": "Feature", "properties": { "OBJECTID": 3268, "pkAutoServ": "29751003268", "fkAddressI": "2975171523492", "ArabicName": "محطة الجزيرة للمواد البترولية", "EnglishNam": "Al Jazirah Gas Station", "Subtype": 10108 }, "geometry": { "type": "Point", "coordinates": [ 41.622176251000099, 21.205764378000026 ] } },
{ "type": "Feature", "properties": { "OBJECTID": 3269, "pkAutoServ": "29757003269", "fkAddressI": "2975735159671", "ArabicName": "محطة المنتزه للخدمات البترولية", "EnglishNam": "Al Muntazah Gas Station", "Subtype": 10108 }, "geometry": { "type": "Point", "coordinates": [ 41.662469034000139, 21.196597344000054 ] } },
{ "type": "Feature", "properties": { "OBJECTID": 3270, "pkAutoServ": "29734003270", "fkAddressI": "2973448257515", "ArabicName": "معرض معدي بن حريص للسيارات", "EnglishNam": "Mu'addi Ibn Haris Auto Showroom", "Subtype": 10103 }, "geometry": { "type": "Point", "coordinates": [ 41.587255477000156, 21.181186059000083 ] } },
{ "type": "Feature", "properties": { "OBJECTID": 3271, "pkAutoServ": "29751003271", "fkAddressI": "2975176374171", "ArabicName": "محطة الخالدية للخدمات البترولية", "EnglishNam": "Al Khalidiyah Gas Station", "Subtype": 10108 }, "geometry": { "type": "Point", "coordinates": [ 41.628789228000016, 21.210044194000147 ] } },
{ "type": "Feature", "properties": { "OBJECTID": 3272, "pkAutoServ": "29751003272", "fkAddressI": "2975174684887", "ArabicName": "محطة عائش بن مسفر المرزوقي للخدمات البترولية", "EnglishNam": "Ayish Ibn Misfir Al Marzuqi Gas Station", "Subtype": 10108 }, "geometry": { "type": "Point", "coordinates": [ 41.635650649000127, 21.208490299000061 ] } },
{ "type": "Feature", "properties": { "OBJECTID": 3273, "pkAutoServ": "29742003273", "fkAddressI": "2974285225949", "ArabicName": "محطة بوابة نجد والحجاز للمواد البترولية", "EnglishNam": "Bawwabat Najd Gas Station", "Subtype": 10108 }, "geometry": { "type": "Point", "coordinates": [ 41.543375949000051, 21.098883214000068 ] } },
{ "type": "Feature", "properties": { "OBJECTID": 3274, "pkAutoServ": "29754003274", "fkAddressI": "2975442118579", "ArabicName": "محطة الفيصلية للخدمات البترولية", "EnglishNam": "Al faysaliyah Gas Station", "Subtype": 10108 }, "geometry": { "type": "Point", "coordinates": [ 41.637895343000025, 21.198728531000086 ] } },
{ "type": "Feature", "properties": { "OBJECTID": 3275, "pkAutoServ": "29754003275", "fkAddressI": "2975460885245", "ArabicName": "محطة الشريف للمحروقات", "EnglishNam": "Ash Sharif Gas Station", "Subtype": 10108 }, "geometry": { "type": "Point", "coordinates": [ 41.647188960000108, 21.176107239000146 ] } },
{ "type": "Feature", "properties": { "OBJECTID": 3276, "pkAutoServ": "29573003276", "fkAddressI": "2957373892485", "ArabicName": "محطة القويعية للمواد البترولية", "EnglishNam": "Al Quwa'iyyah Gas Station", "Subtype": 10108 }, "geometry": { "type": "Point", "coordinates": [ 41.664320484000029, 21.255356626000093 ] } },
{ "type": "Feature", "properties": { "OBJECTID": 3277, "pkAutoServ": "29564003277", "fkAddressI": "2956426099491", "ArabicName": "محطة البشائر للخدمات البترولية", "EnglishNam": "Al Bashair Gas Station", "Subtype": 10108 }, "geometry": { "type": "Point", "coordinates": [ 41.709828622000032, 21.280400560000146 ] } },
{ "type": "Feature", "properties": { "OBJECTID": 3278, "pkAutoServ": "29541003278", "fkAddressI": "2954165964524", "ArabicName": "محطة الرياض للمحروقات", "EnglishNam": "Ar Riyadh Gas Station", "Subtype": 10108 }, "geometry": { "type": "Point", "coordinates": [ 41.631356491000076, 21.21679602099999 ] } },
{ "type": "Feature", "properties": { "OBJECTID": 3279, "pkAutoServ": "29541003279", "fkAddressI": "2954169304685", "ArabicName": "مركز خدمة سيارات", "EnglishNam": "Car Services Center", "Subtype": 10102 }, "geometry": { "type": "Point", "coordinates": [ 41.63296068700015, 21.21982084299998 ] } },
{ "type": "Feature", "properties": { "OBJECTID": 3280, "pkAutoServ": "29541003280", "fkAddressI": "2954135666867", "ArabicName": "محطة العروبة للمحروقات", "EnglishNam": "Al Urubah Gas Station", "Subtype": 10108 }, "geometry": { "type": "Point", "coordinates": [ 41.622169603000089, 21.219454982 ] } },
{ "type": "Feature", "properties": { "OBJECTID": 3281, "pkAutoServ": "29531003281", "fkAddressI": "2953128846778", "ArabicName": "محطة الجهر للخدمات البترولية", "EnglishNam": "Al Jahr Gas Station", "Subtype": 10108 }, "geometry": { "type": "Point", "coordinates": [ 41.577792340000087, 21.231260191000047 ] } },
{ "type": "Feature", "properties": { "OBJECTID": 3282, "pkAutoServ": "29571003282", "fkAddressI": "2957194793185", "ArabicName": "محطة النور للمحروقات", "EnglishNam": "An Nur Gas Station", "Subtype": 10108 }, "geometry": { "type": "Point", "coordinates": [ 41.645131406000019, 21.223693970999989 ] } },
{ "type": "Feature", "properties": { "OBJECTID": 3314, "pkAutoServ": "29734003314", "fkAddressI": "2973450287331", "ArabicName": "محطة الصناعية للخدمات البترولية", "EnglishNam": "As Sina'iyyah Gas Station", "Subtype": 10108 }, "geometry": { "type": "Point", "coordinates": [ 41.589168479000136, 21.179499274000023 ] } },
{ "type": "Feature", "properties": { "OBJECTID": 3315, "pkAutoServ": "29578003315", "fkAddressI": "2957820786522", "ArabicName": "محطة الجنوب للخدمات البترولية", "EnglishNam": "Al Janub Gas Station", "Subtype": 10108 }, "geometry": { "type": "Point", "coordinates": [ 41.680712586000084, 21.196733866000159 ] } },
{ "type": "Feature", "properties": { "OBJECTID": 3316, "pkAutoServ": "29566003316", "fkAddressI": "2956668832092", "ArabicName": "محطة وقود", "EnglishNam": "Gas Station", "Subtype": 10108 }, "geometry": { "type": "Point", "coordinates": [ 41.732126415000153, 21.292565828000022 ] } },
{ "type": "Feature", "properties": { "OBJECTID": 3357, "pkAutoServ": "29735003357", "fkAddressI": "2973564583970", "ArabicName": "محطة العدل للمحروقات", "EnglishNam": "Al Adl Gas Station", "Subtype": 10108 }, "geometry": { "type": "Point", "coordinates": [ 41.565608218000079, 21.165076312000053 ] } },
{ "type": "Feature", "properties": { "OBJECTID": 341, "pkAutoServ": "23343000341", "fkAddressI": "2334340666355", "ArabicName": "معرض هوازن للسيارات", "EnglishNam": "hawazin car showrooms", "Subtype": 10103 }, "geometry": { "type": "Point", "coordinates": [ 39.221935311000152, 21.537946307000141 ] } },
{ "type": "Feature", "properties": { "OBJECTID": 342, "pkAutoServ": "22253000342", "fkAddressI": "2225328378963", "ArabicName": "محطة بن مرضاخ للخدمات البترولية", "EnglishNam": "bin mirdakh gas station", "Subtype": 10108 }, "geometry": { "type": "Point", "coordinates": [ 39.247160265000048, 21.510395050000056 ] } },
{ "type": "Feature", "properties": { "OBJECTID": 343, "pkAutoServ": "23448000343", "fkAddressI": "2344858056470", "ArabicName": "محطة الامل للمحروقات", "EnglishNam": "al amal petrol station", "Subtype": 10108 }, "geometry": { "type": "Point", "coordinates": [ 39.196568801000069, 21.583714032000046 ] } },
{ "type": "Feature", "properties": { "OBJECTID": 344, "pkAutoServ": "23535000344", "fkAddressI": "2353580145214", "ArabicName": "معرض المورفي للسيارات", "EnglishNam": "al murfi car showroom", "Subtype": 10103 }, "geometry": { "type": "Point", "coordinates": [ 39.186453457000141, 21.615909996000141 ] } },
{ "type": "Feature", "properties": { "OBJECTID": 345, "pkAutoServ": "23451000345", "fkAddressI": "2345174503103", "ArabicName": "محطة الامتياز للمحروقات", "EnglishNam": "al imtiaz gas station", "Subtype": 10108 }, "geometry": { "type": "Point", "coordinates": [ 39.209046799000077, 21.57535768300005 ] } },
{ "type": "Feature", "properties": { "OBJECTID": 346, "pkAutoServ": "23454000346", "fkAddressI": "2345481245053", "ArabicName": "محطة الشام للخدمات البترولية", "EnglishNam": "al sham gas station", "Subtype": 10108 }, "geometry": { "type": "Point", "coordinates": [ 39.22788003200003, 21.581370442000093 ] } },
{ "type": "Feature", "properties": { "OBJECTID": 347, "pkAutoServ": "23345000347", "fkAddressI": "2334589205048", "ArabicName": "محطة نفط للمحروقات", "EnglishNam": "naft gas station", "Subtype": 10108 }, "geometry": { "type": "Point", "coordinates": [ 39.23142728900018, 21.561226385000055 ] } },
{ "type": "Feature", "properties": { "OBJECTID": 348, "pkAutoServ": "23335000348", "fkAddressI": "2333542526397", "ArabicName": "شفق لتاجير السيارات", "EnglishNam": "shafaq rent a car", "Subtype": 10106 }, "geometry": { "type": "Point", "coordinates": [ 39.195389440000099, 21.532864984000071 ] } },
{ "type": "Feature", "properties": { "OBJECTID": 349, "pkAutoServ": "23534000349", "fkAddressI": "2353469104442", "ArabicName": "العبيري لتاجير السيارات", "EnglishNam": "al ubairi rent a car", "Subtype": 10106 }, "geometry": { "type": "Point", "coordinates": [ 39.175415666000163, 21.622386634000065 ] } },
{ "type": "Feature", "properties": { "OBJECTID": 350, "pkAutoServ": "23455000350", "fkAddressI": "2345540826432", "ArabicName": "مركز الفتح للخدمات البترولية", "EnglishNam": "al fath petrol services center", "Subtype": 10108 }, "geometry": { "type": "Point", "coordinates": [ 39.21220814600008, 21.583696198000155 ] } },
{ "type": "Feature", "properties": { "OBJECTID": 351, "pkAutoServ": "23541000351", "fkAddressI": "2354181592450", "ArabicName": "محطة المروة للمحروقات", "EnglishNam": "al marwah gas station", "Subtype": 10108 }, "geometry": { "type": "Point", "coordinates": [ 39.186343655000087, 21.619455561000109 ] } },
{ "type": "Feature", "properties": { "OBJECTID": 352, "pkAutoServ": "23544000352", "fkAddressI": "2354432559592", "ArabicName": "محطة الجنادرية للمحروقات", "EnglishNam": "al janadriya gas station", "Subtype": 10108 }, "geometry": { "type": "Point", "coordinates": [ 39.194241824000187, 21.632297002000087 ] } },
{ "type": "Feature", "properties": { "OBJECTID": 353, "pkAutoServ": "23452000353", "fkAddressI": "2345269223383", "ArabicName": "محطة البشاير للمحروقات", "EnglishNam": "al bashayir gas station", "Subtype": 10108 }, "geometry": { "type": "Point", "coordinates": [ 39.205498420000026, 21.588286849000099 ] } },
{ "type": "Feature", "properties": { "OBJECTID": 354, "pkAutoServ": "23454000354", "fkAddressI": null, "ArabicName": "محطة موبيل للمحروقات", "EnglishNam": "mobil gas station", "Subtype": 10108 }, "geometry": { "type": "Point", "coordinates": [ 39.218302135000101, 21.57944421600007 ] } },
{ "type": "Feature", "properties": { "OBJECTID": 355, "pkAutoServ": "23456000355", "fkAddressI": null, "ArabicName": "محطة بترويام للمحروقات", "EnglishNam": "petroyam gas station", "Subtype": 10108 }, "geometry": { "type": "Point", "coordinates": [ 39.217296204000093, 21.606638589000113 ] } },
{ "type": "Feature", "properties": { "OBJECTID": 356, "pkAutoServ": "23452000356", "fkAddressI": "2345276442259", "ArabicName": "محطة سليمان المكادي للمحروقات", "EnglishNam": "sulaiman al makadi gas station", "Subtype": 10108 }, "geometry": { "type": "Point", "coordinates": [ 39.194617207000078, 21.594659139000157 ] } },
{ "type": "Feature", "properties": { "OBJECTID": 357, "pkAutoServ": "22373000357", "fkAddressI": "2237372123228", "ArabicName": "محطة التومة للخدمات البترولية", "EnglishNam": "al tuma gas station", "Subtype": 10108 }, "geometry": { "type": "Point", "coordinates": [ 39.31764607700012, 21.449374066000075 ] } },
{ "type": "Feature", "properties": { "OBJECTID": 358, "pkAutoServ": "22416000358", "fkAddressI": "2241662723805", "ArabicName": "محطة التسهيلات للمحروقات", "EnglishNam": "al tashilat gas station", "Subtype": 10108 }, "geometry": { "type": "Point", "coordinates": [ 39.264720384000157, 21.439014064000162 ] } },
{ "type": "Feature", "properties": { "OBJECTID": 359, "pkAutoServ": "22342000359", "fkAddressI": "2234222027246", "ArabicName": "فرناس لتاجير السيارات", "EnglishNam": "firnas rent a car", "Subtype": 10106 }, "geometry": { "type": "Point", "coordinates": [ 39.239129640000044, 21.47043688500014 ] } },
{ "type": "Feature", "properties": { "OBJECTID": 360, "pkAutoServ": "22234000360", "fkAddressI": "2223478104466", "ArabicName": "مجمع شركات تاجير سيارات", "EnglishNam": "cars rents co. complex", "Subtype": 10106 }, "geometry": { "type": "Point", "coordinates": [ 39.182317222000108, 21.502922478000073 ] } },
{ "type": "Feature", "properties": { "OBJECTID": 361, "pkAutoServ": "23326000361", "fkAddressI": "2332691244211", "ArabicName": "الافضل لتاجير السيارات", "EnglishNam": "al afdal rent a car", "Subtype": 10106 }, "geometry": { "type": "Point", "coordinates": [ 39.17379967200003, 21.551592116000052 ] } },
{ "type": "Feature", "properties": { "OBJECTID": 362, "pkAutoServ": "22345000362", "fkAddressI": "2234547618224", "ArabicName": "محطة طيبة للمحروقات", "EnglishNam": "taybah gas station", "Subtype": 10108 }, "geometry": { "type": "Point", "coordinates": [ 39.263828094000075, 21.479356672000165 ] } },
{ "type": "Feature", "properties": { "OBJECTID": 363, "pkAutoServ": "22234000363", "fkAddressI": "2223484833881", "ArabicName": "محطة محروقات", "EnglishNam": "gas station", "Subtype": 10108 }, "geometry": { "type": "Point", "coordinates": [ 39.17679707100018, 21.508981113000175 ] } },
{ "type": "Feature", "properties": { "OBJECTID": 364, "pkAutoServ": "23241000364", "fkAddressI": "2324168452915", "ArabicName": "محطة الاماني كيوبركس", "EnglishNam": "al amani gas station", "Subtype": 10108 }, "geometry": { "type": "Point", "coordinates": [ 39.247227751000139, 21.519946819000154 ] } },
{ "type": "Feature", "properties": { "OBJECTID": 365, "pkAutoServ": "23613000365", "fkAddressI": "2361368163437", "ArabicName": "محطة وسوبر ماركت الكرة الارضية", "EnglishNam": "earth gas station and supermarket", "Subtype": 10108 }, "geometry": { "type": "Point", "coordinates": [ 39.110609332000024, 21.648822403000054 ] } },
{ "type": "Feature", "properties": { "OBJECTID": 366, "pkAutoServ": "23512000366", "fkAddressI": "2351284382370", "ArabicName": "بدجت لتاجير السيارات", "EnglishNam": "budget rent a car", "Subtype": 10106 }, "geometry": { "type": "Point", "coordinates": [ 39.108818023000026, 21.612768915000174 ] } },
{ "type": "Feature", "properties": { "OBJECTID": 367, "pkAutoServ": "22231000367", "fkAddressI": "2223181492680", "ArabicName": "محطة نفط للمحروقات", "EnglishNam": "naft gas station", "Subtype": 10108 }, "geometry": { "type": "Point", "coordinates": [ 39.165189599000087, 21.505980316000148 ] } },
{ "type": "Feature", "properties": { "OBJECTID": 368, "pkAutoServ": "22337000368", "fkAddressI": "2233736817880", "ArabicName": "محطة نفط للمحروقات", "EnglishNam": "naft gas station", "Subtype": 10108 }, "geometry": { "type": "Point", "coordinates": [ 39.232531004000123, 21.472609078000175 ] } },
{ "type": "Feature", "properties": { "OBJECTID": 369, "pkAutoServ": "23531000369", "fkAddressI": "2353121097783", "ArabicName": "محطة جوهرة الحجاز", "EnglishNam": "jawharat al hijaz gas station", "Subtype": 10108 }, "geometry": { "type": "Point", "coordinates": [ 39.156539253, 21.613762269000119 ] } },
{ "type": "Feature", "properties": { "OBJECTID": 370, "pkAutoServ": "23436000370", "fkAddressI": "2343672784009", "ArabicName": "العمري لتاجير السيارات", "EnglishNam": "rent a car", "Subtype": 10106 }, "geometry": { "type": "Point", "coordinates": [ 39.162805048000052, 21.586122768000052 ] } },
{ "type": "Feature", "properties": { "OBJECTID": 371, "pkAutoServ": "23523000371", "fkAddressI": "2352329667966", "ArabicName": "محطة النهضه للمحروقات", "EnglishNam": "al nahdah gas station", "Subtype": 10108 }, "geometry": { "type": "Point", "coordinates": [ 39.127276674000086, 21.608181242000114 ] } },
{ "type": "Feature", "properties": { "OBJECTID": 372, "pkAutoServ": "22413000372", "fkAddressI": "2241382403935", "ArabicName": "محطة العجاج المحروقات", "EnglishNam": "al ajjaj gas station", "Subtype": 10108 }, "geometry": { "type": "Point", "coordinates": [ 39.197635261000187, 21.452103344000136 ] } },
{ "type": "Feature", "properties": { "OBJECTID": 373, "pkAutoServ": "23437000373", "fkAddressI": "2343781543786", "ArabicName": "مركز خوجه لخدمة السيارات", "EnglishNam": "khoja auto mooters services", "Subtype": 10102 }, "geometry": { "type": "Point", "coordinates": [ 39.160456277000094, 21.594162225000048 ] } },
{ "type": "Feature", "properties": { "OBJECTID": 374, "pkAutoServ": "23437000374", "fkAddressI": "2343781143799", "ArabicName": "جاما لتاجير السيارات", "EnglishNam": "jama rent a car", "Subtype": 10106 }, "geometry": { "type": "Point", "coordinates": [ 39.160641277000138, 21.593946397000138 ] } },
{ "type": "Feature", "properties": { "OBJECTID": 375, "pkAutoServ": "22331000375", "fkAddressI": "2233137246692", "ArabicName": "محطة البديري للمحروقات", "EnglishNam": "al bidairi gas station", "Subtype": 10108 }, "geometry": { "type": "Point", "coordinates": [ 39.224099962000082, 21.477151164000134 ] } },
{ "type": "Feature", "properties": { "OBJECTID": 376, "pkAutoServ": "22335000376", "fkAddressI": "2233579425109", "ArabicName": "معرض هينو للسيارت", "EnglishNam": "hino car showroom", "Subtype": 10103 }, "geometry": { "type": "Point", "coordinates": [ 39.228695379999976, 21.474252652000075 ] } },
{ "type": "Feature", "properties": { "OBJECTID": 377, "pkAutoServ": "22335000377", "fkAddressI": "2233543678104", "ArabicName": "محطة محروقات الامن العام", "EnglishNam": "public security gas station", "Subtype": 10108 }, "geometry": { "type": "Point", "coordinates": [ 39.220872559000156, 21.474952937000012 ] } },
{ "type": "Feature", "properties": { "OBJECTID": 378, "pkAutoServ": "22335000378", "fkAddressI": "2233587473563", "ArabicName": "محطة موبيل ك 3", "EnglishNam": "mobil gas station kilo 3", "Subtype": 10108 }, "geometry": { "type": "Point", "coordinates": [ 39.213058459000024, 21.480911915000149 ] } },
{ "type": "Feature", "properties": { "OBJECTID": 379, "pkAutoServ": "23443000379", "fkAddressI": "2344382563161", "ArabicName": "العالمية لصيانة السيارات", "EnglishNam": "int'l car maintenance", "Subtype": 10102 }, "geometry": { "type": "Point", "coordinates": [ 39.170936748000145, 21.600009102000058 ] } },
{ "type": "Feature", "properties": { "OBJECTID": 380, "pkAutoServ": "23436000380", "fkAddressI": "2343640337196", "ArabicName": "محطة الزمان لتاجير السيارات و السياحه و السفر", "EnglishNam": "al zuman rent-a- car torisum and traval agency", "Subtype": 10106 }, "geometry": { "type": "Point", "coordinates": [ 39.162963136000144, 21.585666252000067 ] } },
{ "type": "Feature", "properties": { "OBJECTID": 3627, "pkAutoServ": "26523003627", "fkAddressI": "2652386113426", "ArabicName": "ون ستوب لخدمة السيارات", "EnglishNam": "one stop car service", "Subtype": 10102 }, "geometry": { "type": "Point", "coordinates": [ 40.427055130000042, 21.296388303000185 ] } },
{ "type": "Feature", "properties": { "OBJECTID": 3628, "pkAutoServ": "26523003628", "fkAddressI": "2652376413052", "ArabicName": "بدجت لتأجير السيارات", "EnglishNam": "budget rent a car", "Subtype": 10106 }, "geometry": { "type": "Point", "coordinates": [ 40.423293093000098, 21.288078266000184 ] } },
{ "type": "Feature", "properties": { "OBJECTID": 3683, "pkAutoServ": "28429003683", "fkAddressI": "2842928067273", "ArabicName": "محطة منصور للخدمات البترولية", "EnglishNam": "mansu gas station", "Subtype": 10108 }, "geometry": { "type": "Point", "coordinates": [ 40.279382831000191, 20.152561725000112 ] } },
{ "type": "Feature", "properties": { "OBJECTID": 3684, "pkAutoServ": "28429003684", "fkAddressI": "2842927106834", "ArabicName": "محطة وقود بترول الدريس", "EnglishNam": "ad durais gas station", "Subtype": 10108 }, "geometry": { "type": "Point", "coordinates": [ 40.278440344000103, 20.148600151999972 ] } },
{ "type": "Feature", "properties": { "OBJECTID": 3692, "pkAutoServ": "28822003692", "fkAddressI": "2882290244352", "ArabicName": "مركز الشامل لخدمة السيارات", "EnglishNam": "ash shamil center for auto service", "Subtype": 10102 }, "geometry": { "type": "Point", "coordinates": [ 41.089848479000011, 19.131123740000135 ] } },
{ "type": "Feature", "properties": { "OBJECTID": 3693, "pkAutoServ": "28829003693", "fkAddressI": "2882929398833", "ArabicName": "محطة وقود", "EnglishNam": "gas station", "Subtype": 10108 }, "geometry": { "type": "Point", "coordinates": [ 41.13766339600005, 19.131989181000051 ] } },
{ "type": "Feature", "properties": { "OBJECTID": 3722, "pkAutoServ": "29751003722", "fkAddressI": "2975142046367", "ArabicName": "مركز بدر للخدمات البترولية", "EnglishNam": "Al Badr Gas Station", "Subtype": 10108 }, "geometry": { "type": "Point", "coordinates": [ 41.628905380000049, 21.198578870000063 ] } },
{ "type": "Feature", "properties": { "OBJECTID": 3723, "pkAutoServ": "29754003723", "fkAddressI": "2975452898037", "ArabicName": "محطة اليرموك للخدمات البترولية", "EnglishNam": "Al Yarmuk Gas Station", "Subtype": 10108 }, "geometry": { "type": "Point", "coordinates": [ 41.647964690000151, 21.193718465000131 ] } },
{ "type": "Feature", "properties": { "OBJECTID": 3724, "pkAutoServ": "29541003724", "fkAddressI": "2954162105192", "ArabicName": "محطة المرزوقي للمحروقات", "EnglishNam": "Al Marzuqi Gas Station", "Subtype": 10108 }, "geometry": { "type": "Point", "coordinates": [ 41.63772528100003, 21.21327013500013 ] } },
{ "type": "Feature", "properties": { "OBJECTID": 381, "pkAutoServ": "23436000381", "fkAddressI": "2343672784009", "ArabicName": "بن هادي لتاجير السيارات", "EnglishNam": "rent a car", "Subtype": 10106 }, "geometry": { "type": "Point", "coordinates": [ 39.162839181000095, 21.586039161000144 ] } },
{ "type": "Feature", "properties": { "OBJECTID": 382, "pkAutoServ": "23525000382", "fkAddressI": "2352574004010", "ArabicName": "معرض سيارات - كيا موتورز", "EnglishNam": "kia motors", "Subtype": 10103 }, "geometry": { "type": "Point", "coordinates": [ 39.156719809000037, 21.605840678999982 ] } },
{ "type": "Feature", "properties": { "OBJECTID": 383, "pkAutoServ": "22383000383", "fkAddressI": null, "ArabicName": "محطة ام السلم للمحروقات", "EnglishNam": "umm al salam gas station", "Subtype": 10108 }, "geometry": { "type": "Point", "coordinates": [ 39.39116770600009, 21.425807950000092 ] } },
{ "type": "Feature", "properties": { "OBJECTID": 384, "pkAutoServ": "22324000384", "fkAddressI": "2232436666062", "ArabicName": "محطة الورودي للمحروقات", "EnglishNam": "al warudi gas station", "Subtype": 10108 }, "geometry": { "type": "Point", "coordinates": [ 39.192650187000027, 21.459583678000172 ] } },
{ "type": "Feature", "properties": { "OBJECTID": 385, "pkAutoServ": "22235000385", "fkAddressI": "2223552226740", "ArabicName": "محطة الرحيلي", "EnglishNam": "al rehaili gas station", "Subtype": 10108 }, "geometry": { "type": "Point", "coordinates": [ 39.189736568000114, 21.493077430000142 ] } },
{ "type": "Feature", "properties": { "OBJECTID": 386, "pkAutoServ": "23443000386", "fkAddressI": "2344379263294", "ArabicName": "البريك لتاجير السيارات", "EnglishNam": "al braik rent a car", "Subtype": 10106 }, "geometry": { "type": "Point", "coordinates": [ 39.17230342300013, 21.597081742000114 ] } },
{ "type": "Feature", "properties": { "OBJECTID": 387, "pkAutoServ": "23525000387", "fkAddressI": "2352577543912", "ArabicName": "الحاج حسين علي رضا - مركز كيا موتورز", "EnglishNam": "hajj husein ali reza & co. ltd \/ kia motors center", "Subtype": 10101 }, "geometry": { "type": "Point", "coordinates": [ 39.155801022000162, 21.608966597000176 ] } },
{ "type": "Feature", "properties": { "OBJECTID": 388, "pkAutoServ": "23437000388", "fkAddressI": "2343779003866", "ArabicName": "معرض سيارات بيجو", "EnglishNam": "peugeot", "Subtype": 10103 }, "geometry": { "type": "Point", "coordinates": [ 39.161212831000171, 21.591901120000102 ] } },
{ "type": "Feature", "properties": { "OBJECTID": 389, "pkAutoServ": "22331000389", "fkAddressI": "2233126297636", "ArabicName": "محطة البركة", "EnglishNam": "al barakh petrol station", "Subtype": 10108 }, "geometry": { "type": "Point", "coordinates": [ 39.21361700500006, 21.485750285000108 ] } },
{ "type": "Feature", "properties": { "OBJECTID": 390, "pkAutoServ": "22234000390", "fkAddressI": "2223486245529", "ArabicName": "محطة ركن الشرفية للمحروقات", "EnglishNam": "al sharafiyyah corner gas station", "Subtype": 10108 },